"","num","name","full_add","on_off","zip","salesman","lic_num","county","city","dvry_man","main_phone","contact_name","contact_phone","contact_email","lon","lat","geocode"
"1",1006,"Chilly Mart - Carrolton","2220 Marsh Lane, #122, Carrollton, TX 75006","Off Premise",75006,"Brian Schick","BQ949864","Dallas","Carrollton","Harrison Boyland",NA,NA,NA,NA,-96.8543227,32.9703068,"2220 marsh ln, carrollton, tx 75006, usa"
"2",1009,"Local Pint","2750 Churchill Drive, Flower Mound, TX 75063","On Premise",75063,"Nathan Zaremba","BG952805","Denton","Flower Mound","Edgard Olvera",NA,NA,NA,NA,-97.0720716,33.0339783,"2750 churchill dr, flower mound, tx 75028, usa"
"3",1010,"Haymaker","1520 Greenville Ave, Dallas, TX 75206","On Premise",75206,"Dominique Van Ausdall","MB953508","Dallas","Dallas","James Hall",NA,NA,NA,NA,-96.7699136,32.8097874,"1520 greenville ave, dallas, tx 75206, usa"
"4",1011,"Craft Beer Cellar","6324 Gaston Ave., Dallas, TX 75214","Off Premise",75214,"Dominique Van Ausdall","BG953081","Dallas","Dallas","James Hall",NA,NA,NA,NA,-96.7535466,32.8129583,"1"
"5",1014,"44 Bootlegger","1411 W. Magnolia Ave., Suite 101, Fort Worth, TX 76104","On Premise",76104,"Brandon Pitzer","BG824866","Tarrant","Fort Worth","Kevin Whitehorse",NA,NA,NA,NA,-97.3407903,32.7303548,"1"
"6",1017,"Social Pizza","5855 Maple Ave., Suite 160, Dallas, TX 75235","On Premise",75235,"Ethan Garrison","BG957413","Dallas","Dallas","James Liston",NA,NA,NA,NA,-96.8381986,32.8222142,"1"
"7",1021,"Beaker Social Club, Inc. - Pie Tap","2708 N. Henderson Ave., Suite 110, Dallas, TX 75206","On Premise",75206,"Dominique Van Ausdall","N945683","Dallas","Dallas","James Hall",NA,NA,NA,NA,-96.7815865,32.8178585,"1"
"8",1032,"Taps & Caps - Fort Worth","6115 Camp Bowie Blvd., Fort Worth, TX 76116","On Premise",76116,"Dominique Van Ausdall","BG943308","Tarrant","Fort Worth","Kevin Whitehorse",NA,NA,NA,NA,-97.4182794,32.7256806,"1"
"9",1033,"Nerdvana Food & Spirits","5757 Main Street, Suite 112, Frisco, TX 75034","On Premise",75034,"Hudson Boyd","RM961005","Collin","Frisco","Mike Harrison",NA,NA,NA,NA,-96.8370261,33.1522787,"1"
"10",1037,"Pie Tap Pizza Workshop and Bar","1212 Oak Lawn Ave, Dallas, TX 75207","On Premise",75207,"Ethan Garrison","MB940552","Dallas","Dallas","James Hall",NA,NA,NA,NA,-96.822546,32.7926659,"1"
"11",1047,"Liquor City","290 E Corporate Dr., Lewisville, TX 75067","Off Premise",75067,"Brian Schick","bf871276","Denton","Lewisville","Edgard Olvera",NA,NA,NA,NA,-96.9855362,33.0159883,"1"
"12",1061,"Twin Peaks - Fort Worth - Fossil Creek","6650 North Freeway, Fort Worth, TX 76137","On Premise",76137,"Nathan Zaremba","MB845188","Tarrant","Fort Worth","James Liston",NA,NA,NA,NA,-97.3139642,32.8624104,"1"
"13",1068,"Tricky Fish","1251 State Street, Richardson, TX 75082","On Premise",75082,"Ethan Garrison","RM932488","Collin","Richardson","Mike Harrison",NA,NA,NA,NA,-96.7002711,33.0015563,"1"
"14",1069,"Tom Thumb 3614 - Hampton","315 S Hampton Road, Dallas, TX 75208","Off Premise",75208,"Brandon Byrd","BQ764686","Dallas","Dallas","James Hall",NA,NA,NA,NA,-96.8579515,32.7426503,"1"
"15",1070,"Triple D Liquor","323 W 4th St., Weatherford, TX 76086","Off Premise",76086,"Brandon Pitzer","BF721394","Parker","Weatherford","James Liston",NA,NA,NA,NA,-97.8029804,32.7733927,"1"
"16",1083,"Ill Minster","2600 Cedar Springs Rd., Dallas, TX 75219","On Premise",75219,"Ethan Garrison","MB964523","Dallas","Dallas","James Hall",NA,NA,NA,NA,-96.8050328,32.7998289,"1"
"17",1090,"Big Country Liquor Beer & Wine","6619 Forest Hill Dr., Forest Hill, TX 76140","Off Premise",76140,"Justin Page","P645017","Tarrant","Forest Hill","Kevin Whitehorse",NA,NA,NA,NA,-97.2683508,32.6585538,"1"
"18",1091,"Tom Thumb 3570 - Gaston","7331 Gaston Avenue, Dallas, TX 75214","Off Premise",75214,"Brandon Byrd","BQ961475","Dallas","Dallas","James Hall",NA,NA,NA,NA,-96.7299148,32.8128156,"1"
"19",1092,"Tom Thumb 3569 - Oak Lawn","3878 Oak Lawn Avenue, Dallas, TX 75219","Off Premise",75219,"Brandon Byrd","BQ963877","Dallas","Dallas","James Hall",NA,NA,NA,NA,-96.8006889,32.8154845,"1"
"20",1093,"Tom Thumb 3571 - River Run","1751 River Run, Fort Worth, TX 76107","Off Premise",76107,"Justin Page","BQ963216","Tarrant","Fort Worth","Kevin Whitehorse",NA,NA,NA,NA,-97.3598741,32.7267531,"1"
"21",1107,"Dallas Craft Company - Colleyville","5120 HWY 121, Colleyville, TX 76034","On Premise",76034,"Nathan Zaremba","RM951519","Tarrant","Colleyville","James Liston",NA,NA,NA,NA,-97.1002341,32.8837675,"1"
"22",1109,"On Tap","200 N. Mesquite Street, Arlington, TX 76011","On Premise",76011,"Brandon Pitzer","BG930162","Tarrant","Arlington","Kevin Whitehorse",NA,NA,NA,NA,-97.1059577,32.7385634,"1"
"23",1112,"Public School 972","14854 Montfort Drive, Addison, TX 75254","On Premise",75254,"Ethan Garrison","MB931724","Dallas","Addison","Harrison Boyland",NA,NA,NA,NA,-96.8177048,32.9499794,"1"
"24",1114,"The Backyard on Bell","410 N. Bell Avenue, Denton, TX 76209","On Premise",76209,"Nathan Zaremba","MB943784","Denton","Denton","Edgard Olvera",NA,NA,NA,NA,-97.1275462,33.2169233,"1"
"25",1118,"LG Taps","3619 Greenville Ave., Dallas, TX 75206","On Premise",75206,"Dominique Van Ausdall","MB966899","Dallas","Dallas","James Hall",NA,NA,NA,NA,-96.7703327,32.8315831,"1"
"26",1119,"Bluffview Growler","3850 W. NW Hwy., Dallas, TX 75220","On Premise",75220,"Ethan Garrison","BG964775","Dallas","Dallas","James Liston",NA,NA,NA,NA,-96.8513536,32.8609309,"1"
"27",1128,"Target 2425 - Ridgemar","751 Alta Mere Dr., Fort Worth, TX 76116","Off Premise",76116,"Justin Page","BQ695986","Tarrant","Fort Worth","Kevin Whitehorse",NA,NA,NA,NA,-97.4318738,32.7483042,"1"
"28",1132,"Target 2008 - Lake Worth","6604 Lake Worth Blvd, Lake Worth, TX 76135","Off Premise",76135,"Justin Page","BQ609739","Tarrant","Lake Worth","James Liston",NA,NA,NA,NA,-97.4300548,32.8140845,"1"
"29",1133,"Flamingo Liquor & Wine - Dallas","4125 Fairmount Street, Dallas, TX 75219","Off Premise",75219,"Brandon Byrd","BF941770","Dallas","Dallas","James Hall",NA,NA,NA,NA,-96.8169084,32.8078688,"1"
"30",1136,"Bar 2909","2909 Morton Street, Fort Worth, TX 76107","On Premise",76107,"Brandon Pitzer","MB937166","Tarrant","Fort Worth","Kevin Whitehorse",NA,NA,NA,NA,-97.3589,32.7488691,"1"
"31",1139,"HEB 423 - Waco - Wooded Acres","1301 Wooded Acres, Waco, TX 76710","Off Premise",76710,"Mark Molkenbuhr","BF422850","McLennan","Waco","Charles_3",NA,NA,NA,NA,-97.1892364,31.532631,"1"
"32",1141,"Book Club Cafe","107 E Kaufman St., Rockwall, TX 75087","On Premise",75087,"Hudson Boyd","BG929321","Rockwall","Rockwall","Harrison Boyland",NA,NA,NA,NA,-96.4598125,32.9318979,"1"
"33",1142,"Baker St. Pub and Grill","6333 Camp Bowie Blvd, Fort Worth, TX 76116","On Premise",76116,"Brandon Pitzer","MB579698","Tarrant","Fort Worth","Kevin Whitehorse",NA,NA,NA,NA,-97.4184685,32.7262209,"1"
"34",1145,"Rotolo's Pizzeria - Longview","3407 N Fourth Street, Longview, TX 75605","On Premise",75605,"Ronnie Esposito","RM955176","Gregg","Longview","Dalton Davis",NA,NA,NA,NA,-94.7318354,32.54564,"1"
"35",1159,"HEB 672 - Valley Mills","1821 S Valley Mills Dr., Waco, TX 76711","Off Premise",76711,"Mark Molkenbuhr","BF812195","McLennan","Waco","David Cash",NA,NA,NA,NA,-97.1372485,31.5237395,"1"
"36",1160,"HEB 583 - Woodway","9100 Woodway Dr., Woodway, TX 76712","Off Premise",76712,"Mark Molkenbuhr","BQ560175","McLennan","Woodway","David Cash",NA,NA,NA,NA,-97.2219736,31.4950429,"1"
"37",1169,"Haystack - Dallas","3838 Oak Lawn Ave, Dalla, TX 75219","On Premise",75219,"Ethan Garrison","MB970324","Dallas","Dalla","James Hall",NA,NA,NA,NA,-96.8014862,32.8144645,"1"
"38",1189,"Bubble & Squeak","425 Pinson Rd, Forney, TX 75126","Off Premise",75126,"Brandon Byrd","BF968744","Kaufman","Forney","David Cash",NA,NA,NA,NA,-96.4711167,32.7541564,"1"
"39",1194,"Bread Winners Cafe - Trophy Club","3000 Hwy 114 E, Trophy Club, TX 76262","On Premise",76262,"Nathan Zaremba","RM960642","Tarrant","Trophy Club","James Liston",NA,NA,NA,NA,-97.2348897,33.0116276,"1"
"40",1198,"Target 2042 - 7th Street","301 Carroll Street, Fort Worth, TX 76107","Off Premise",76107,"Justin Page","BQ609734","Tarrant","Fort Worth","Kevin Whitehorse",NA,NA,NA,NA,-97.3533438,32.7559145,"1"
"41",1199,"America Gardens","2833-37 Morton Street, Fort Worth, TX 76107","On Premise",76107,"Brandon Pitzer","MB957791","Tarrant","Fort Worth","John Munoz",NA,NA,NA,NA,-97.3580575,32.7489482,"1"
"42",1200,"EJ Wills Gastro Pub","18208 Preston Road, Dallas, TX 75252","On Premise",75252,"Hudson Boyd","RM953358","Dallas","Dallas","Harrison Boyland",NA,NA,NA,NA,-96.7937631,32.999857,"1"
"43",1207,"Rotolo's Pizzeria - Tyler","8970 S. Broadway Ave., Tyler, TX 75703","On Premise",75703,"Ronnie Esposito","RM883727","Smith","Tyler","David Cash",NA,NA,NA,NA,-95.3064115,32.2482193,"1"
"44",1236,"Cane Rosso - W Magnolia Ave","815 W Magnolia Ave, Fort Worth, TX 76104","On Premise",76104,"Brandon Pitzer","MB927976","Tarrant","Fort Worth","Kevin Whitehorse",NA,NA,NA,NA,-97.3331657,32.7304695,"1"
"45",1237,"Caskey's Bar and Grill - W Hickory St","1206 W Hickory St, Denton, TX 76201","On Premise",76201,"Nathan Zaremba","MB952662","Denton","Denton","Edgard Olvera",NA,NA,NA,NA,-97.1454756,33.2147406,"1"
"46",1238,"Fixture - Kitchen and Social Lounge - W Magnolia A","401 W Magnolia Ave, Fort Worth, TX 76104","On Premise",76104,"Brandon Pitzer","MB905218","Tarrant","Fort Worth","Kevin Whitehorse",NA,NA,NA,NA,-97.3291442,32.7304279,"1"
"47",1240,"LSA Burger Co. - W Hickory St","113 W Hickory St, Denton, TX 76201","On Premise",76201,"Nathan Zaremba","RM839263","Denton","Denton","Edgard Olvera",NA,NA,NA,NA,-97.1331299,33.214234,"1"
"48",1241,"Oni Ramen - W 7th St","2801 W 7th St, Forth Worth, TX 76107","On Premise",76107,"Brandon Pitzer","MB972766","Tarrant","Forth Worth","Kevin Whitehorse",NA,NA,NA,NA,-97.3566907,32.7508534,"1"
"49",1242,"Terra Mediterranean Grill - Crockett ST","2973 Crockett St, Fort Worth, TX 76107","On Premise",76107,"Brandon Pitzer","MB739599","Tarrant","Fort Worth","Kevin Whitehorse",NA,NA,NA,NA,-97.3598542,32.7499598,"1"
"50",1246,"Sugarbacon - McKinney","216 W. Virginia Street, McKinney, TX 75069","On Premise",75069,"Hudson Boyd","RM901412","Collin","McKinney","Mike Harrison",NA,NA,NA,NA,-96.6170964,33.198213,"1"
"51",1248,"Varsity Tavern","1005 Norwood Street, Fort Worth, TX 76107","On Premise",76107,"Brandon Pitzer","MB925257","Tarrant","Fort Worth","Kevin Whitehorse",NA,NA,NA,NA,-97.3599839,32.7489303,"1"
"52",1253,"Tom Thumb 3312 - W 7th St","2400 W 7th St, Fort Worth, TX 76107","Off Premise",76107,"Justin Page","BG964279","Tarrant","Fort Worth","Joe Castro",NA,NA,NA,NA,-97.3514026,32.7515549,"1"
"53",1258,"Neighbors Food N Brews - Richardson","508 W Lookout Dr, Richardson, TX 75080","Off Premise",75080,"Mason Lowe","BQ971446","Collin","Richardson","Mike Harrison",NA,NA,NA,NA,-96.7277259,32.9900669,"1"
"54",1265,"Radisson Fort Worth North","2540 Meacham Blvd., Fort Worth, TX 76106","On Premise",76106,"Brandon Pitzer","MB661028","Tarrant","Fort Worth","Kevin Whitehorse",NA,NA,NA,NA,-97.3146146,32.8236871,"1"
"55",1268,"Happiest Hour","2616 Olive Street, Dallas, TX 75201","On Premise",75201,"Ronnie Esposito","MB918752","Dallas","Dallas","James Hall",NA,NA,NA,NA,-96.8066739,32.7911613,"1"
"56",1281,"Prohibition Chicken - Lewisville","201 W Church St, Lewisville, TX 75057","On Premise",75057,"Nathan Zaremba","RM974213","Denton","Lewisville","Edgard Olvera",NA,NA,NA,NA,-96.996747,33.0474084,"1"
"57",1301,"6S Spirits - Trophy Club","2003 E Highway 114 STE 425, Trophy Club, TX 76262","Off Premise",76262,"Brian Schick","BF915826","Denton","Trophy Club","James Liston",NA,NA,NA,NA,-97.2341232,33.010249,"1"
"58",1302,"6S Liquor - Little Elm","26411 Hwy 380 Suite B, Little Elm, TX 76227","Off Premise",76227,"Brian Schick","BF947009","Denton","Little Elm","Edgard Olvera",NA,NA,NA,NA,-96.9758932,33.2238498,"1"
"59",1307,"OV-10 Bronco Association, Inc.","3300 Ross Avenue, Fort Worth, TX 76106","On Premise",76106,"House Accounts DFW","SB2680262","Tarrant","Fort Worth","Kevin Whitehorse",NA,NA,NA,NA,-97.3558797,32.8056461,"1"
"60",1309,"The Sunshine Club","902 W Division St, Arlington, TX 76012","On Premise",76012,"Brandon Pitzer","MB214978","Tarrant","Arlington","Kevin Whitehorse",NA,NA,NA,NA,-97.1173112,32.7389003,"1"
"61",1310,"Come and Take It","301 E. Larkin Street, Athens, TX 75751","On Premise",75751,"Ronnie Esposito","BQ829051","Henderson","Athens","Dalton Davis",NA,NA,NA,NA,-95.8523436,32.2066859,"1"
"62",1311,"Dough Bro's Italian Kitchen - The Colony","2851 Plano Pkwy, The Colony, TX 75056","On Premise",75056,"Hudson Boyd","MB967679","Denton","The Colony","Edgard Olvera",NA,NA,NA,NA,-96.8645437,33.0581743,"1"
"63",1316,"Henderson Kitchen & Tap","2730 S. Central Expwy., McKinney, TX 75070","On Premise",75070,"Hudson Boyd","RM974509","Collin","McKinney","Mike Harrison",NA,NA,NA,NA,-96.6406871,33.1751799,"1"
"64",1317,"Lakeway Liquor - Gainesville","7750 E US Highway 82, Gainesville, TX 76240","Off Premise",76240,"Mason Lowe","BF649839","Cooke","Gainesville","Edgard Olvera",NA,NA,NA,NA,-97.0376203,33.6493862,"1"
"65",1319,"Free Play Arcade - Arlington","400 E South St, Arlington, TX 76010","On Premise",76010,"Brandon Pitzer","MB968834","Tarrant","Arlington","Kevin Whitehorse",NA,NA,NA,NA,-97.1031771,32.7343319,"1"
"66",1321,"Denton County Brewing Company","200 E McKinney St, Denton, TX 76201","On Premise",76201,"Nathan Zaremba","BG942111","Denton","Denton","Edgard Olvera",NA,NA,NA,NA,-97.1311845,33.2162125,"1"
"67",1324,"Tom Thumb 3854 - WD Tate","4000 William D Tate Ave., Grapevine, TX 76051","Off Premise",76051,"Brian Schick","BQ970270","Tarrant","Grapevine","James Liston",NA,NA,NA,NA,-97.1021286,32.8922182,"1"
"68",1326,"Target 2145 - S. Loop 288","1801 S. Loop 288, Denton, TX 76205","Off Premise",76205,"Brian Schick","BQ648231","Denton","Denton","Edgard Olvera",NA,NA,NA,NA,-97.0988572,33.1911968,"1"
"69",1329,"Total Wine #521 - Allen","190 East Stacy Rd, Allen, TX 75002","Off Premise",75002,"Mason Lowe","BF969026","Collin","Allen","Mike Harrison",NA,NA,NA,NA,-96.6580072,33.1279976,"1"
"70",1330,"The Franchise Grill & Bar","3000 Custer Rd #345, Plano, TX 75075","On Premise",75075,"Hudson Boyd","RM702183","Collin","Plano","Mike Harrison",NA,NA,NA,NA,-96.732211,33.0395176,"1"
"71",1331,"Lava Cantina - The Colony","5805 Grandscape Blvd, The Colony, TX 75056","On Premise",75056,"Hudson Boyd","MB834517","Denton","The Colony","Edgard Olvera",NA,NA,NA,NA,-96.8599776,33.0778957,"1"
"72",1334,"Caps & Flasks","109 N. Davis Street, Sulphur Springs, TX 75482","On Premise",75482,"Ronnie Esposito","RM949395","Hopkins","Sulphur Springs","David Cash",NA,NA,NA,NA,-95.6031513,33.1380403,"1"
"73",1344,"Imperial Ale & Spirits","717 S Interstate 35 E #132, Denton, TX 76205","Off Premise",76205,"Brian Schick","BF898358","Denton","Denton","Edgard Olvera",NA,NA,NA,NA,-122.4799985,37.7344395,"1"
"74",1345,"Dukes Travel Plaza","Dukes Travel Plaza, Canton, TX 75103","Off Premise",75103,"Ronnie Esposito","BQ972836","Van Zandt","Canton","David Cash",NA,NA,NA,NA,-95.921052,32.600881,"1"
"75",1347,"Stan's Lakeview Draft House","4847 Main St, The Colony, TX 75056","On Premise",75056,"Hudson Boyd","MB893985","Denton","The Colony","Edgard Olvera",NA,NA,NA,NA,-96.8938751,33.0773822,"1"
"76",1349,"Tom Thumb 3853 - Hardin Blvd - McKinney","3001 Hardin Blvd, McKinney, TX 75070","Off Premise",75070,"Mason Lowe","BQ970269","Collin","McKinney","Mike Harrison",NA,NA,NA,NA,-96.6637072,33.1666443,"1"
"77",1350,"Target 1922 - Burleson","200 NW John Jones Drive, Burleson, TX 76028","Off Premise",76028,"Justin Page","BQ651551","Johnson","Burleson","Kevin Whitehorse",NA,NA,NA,NA,-97.3492419,32.5241529,"1"
"78",1351,"Tarrant Liquor","5250 N. Tarrant Pkwy., Fort Worth, TX 76137","Off Premise",76137,"Brian Schick","BF968387","Tarrant","Fort Worth","James Liston",NA,NA,NA,NA,-97.2708072,32.8939397,"1"
"79",1380,"Target 1517 - Flower Mound","5959 Long Prairie Road, Flower Mound, TX 75028","Off Premise",75028,"Brian Schick","BQ529591","Denton","Flower Mound","Edgard Olvera",NA,NA,NA,NA,-97.0838766,33.0675359,"1"
"80",1391,"Lekka Henderson","1921 N. Henderson Ave., Dallas, TX 75206","On Premise",75206,"Dominique Van Ausdall","MB976468","Dallas","Dallas","James Hall",NA,NA,NA,NA,-96.7753946,32.8117012,"1"
"81",1400,"Pie 314 Everyday Eatery","2560 King Arthur Blvd., Lewisville, TX 75056","On Premise",75056,"Nathan Zaremba","RM872137","Denton","Lewisville","Edgard Olvera",NA,NA,NA,NA,-96.8983597,33.0353472,"1"
"82",1402,"The Central Station","103 N. Main Street, Gladewater, TX 75647","On Premise",75647,"Ronnie Esposito","BG977122","Gregg","Gladewater","Dalton Davis",NA,NA,NA,NA,-94.9442832,32.5351274,"1"
"83",1405,"Applejack's Liquor - Denton","345 E. Hickory Street, Denton, TX 76201","Off Premise",76201,"Brian Schick","BF977307","Denton","Denton","Edgard Olvera",NA,NA,NA,NA,-97.1284505,33.2147534,"1"
"84",1411,"Cowburners","109 N. Johnson Street, Mineloa, TX 75773","On Premise",75773,"Ronnie Esposito","BG966485","Wood","Mineloa","Dalton Davis",NA,NA,NA,NA,-95.4892526,32.6640409,"1"
"85",1425,"City Works - Frisco","3680 The Star Blvd., Frisco, TX 75034","On Premise",75034,"Hudson Boyd","RM981575","Collin","Frisco","Mike Harrison",NA,NA,NA,NA,-96.8278562,33.1085733,"1"
"86",1428,"Wild Pitch - Fort Worth","4701 Citylake Blvd. W, Fort Worth, TX 76132","On Premise",76132,"Brandon Pitzer","RM974348","Tarrant","Fort Worth","Kevin Whitehorse",NA,NA,NA,NA,-97.411912,32.6802321,"1"
"87",1430,"The Colonnade Executive Lounge","15305 Dallas Parkway Suite 125, Addison, TX 75001","On Premise",75001,"Ethan Garrison","MB726778","Dallas","Addison","Harrison Boyland",NA,NA,NA,NA,-96.823167,32.9588726,"1"
"88",1441,"Tom Thumb 2557 - Gainsville","206 N. Grand, Grainsville, TX 76240","Off Premise",76240,"Mason Lowe","BQ528916","Cooke","Grainsville","Edgard Olvera",NA,NA,NA,NA,-97.1324884,33.6253812,"1"
"89",1442,"Total Wine #513 - Plano Pkwy","6400 W Plano Pkwy, Plano, TX 75093","Off Premise",75093,"Torie Shelton","BF962761","Collin","Plano","Mike Harrison",NA,NA,NA,NA,-96.8372774,33.0282924,"1"
"90",1443,"Athens Boathouse Restaurant","5401 Marina Drive, Athens, TX 75752","On Premise",75752,"Ronnie Esposito","RM974426","Henderson","Athens","David Cash",NA,NA,NA,NA,-95.7683951,32.2167678,"1"
"91",1445,"Skinner's Grocery & Market","1708 Judson Road, Longview, TX 75605","Off Premise",75605,"Ronnie Esposito","BF681479","Gregg","Longview","Dalton Davis",NA,NA,NA,NA,-94.7420634,32.5266922,"1"
"92",1446,"Spirit of a Hero Foundation","2221 Justin Road, Flower Mound, TX 75028","On Premise",75028,"None","TB2731619","Denton","Flower Mound","Charles_3",NA,NA,NA,NA,-97.0629108,33.0715075,"1"
"93",1447,"Guitars & Growlers","581 W. Campbell Road, Richardson, TX 75080","On Premise",75080,"Ethan Garrison","BG979792","Dallas","Richardson","Harrison Boyland",NA,NA,NA,NA,-96.7396145,32.9771186,"1"
"94",1454,"Mad Batter Baker","15615 Quorum Drive, Addison, TX 75001","On Premise",75001,"Ethan Garrison","BG989600","Dallas","Addison","Harrison Boyland",NA,NA,NA,NA,-96.8260432,32.9617698,"1"
"95",1455,"Wolfgang Puck Catering at Union Station","400 S Houston St, Dallas, TX 75202","On Premise",75202,"House Accounts DFW","MB707504","Dallas","Dallas","Kevin Whitehorse",NA,NA,NA,NA,-96.8075123,32.7761879,"1"
"96",1461,"Southern Ground Bottle Company Inc - Lindale","305 East Hubbard St. Suite C, Lindale, TX 75771","On Premise",75771,"Ronnie Esposito","BQ965650","Smith","Lindale","Dalton Davis",NA,NA,NA,NA,-95.4070859,32.5159247,"1"
"97",1464,"Wise Guys Pizzeria - Roanoke","311 South Oak Street, Roanoke, TX 76262","On Premise",76262,"Nathan Zaremba","BG974313","Denton","Roanoke","James Liston",NA,NA,NA,NA,-97.2311384,32.995843,"1"
"98",1466,"Discovery at the Realm","3600 Windhaven Pkwy., Lewisville, TX 75056","On Premise",75056,"Nathan Zaremba","BG952919","Denton","Lewisville","Edgard Olvera",NA,NA,NA,NA,-96.8989582,33.0572452,"1"
"99",1467,"AllGood Cafe","2934 Main St, Dallas, TX 75226","On Premise",75226,"Dominique Van Ausdall","BG476898","Dallas","Dallas","James Hall",NA,NA,NA,NA,-96.7807288,32.7843191,"1"
"100",1468,"Grub Burger Bar - Tyler","6421 South Broadway Street, Tyler, TX 75707","On Premise",75707,"Ronnie Esposito","RM930659","Smith","Tyler","David Cash",NA,NA,NA,NA,-95.3070649,32.279296,"1"
"101",1471,"District 30 Gastropub","3211 Oak Lawn Ave, Dallas, TX 75219","On Premise",75219,"Ethan Garrison","MB905671","Dallas","Dallas","James Hall",NA,NA,NA,NA,-96.8083272,32.8103097,"1"
"102",1472,"South Tyler Speakeasy","16884 FM 2493, Tyler, TX 75703","On Premise",75703,"Ronnie Esposito","N 555057","Smith","Tyler","David Cash",NA,NA,NA,NA,-95.3494241,32.2349376,"1"
"103",1483,"Applejack's Liquor - Lewisville","495 Hwy 121, Lewisville, TX 75067","Off Premise",75067,"Brian Schick","BF939027","Denton","Lewisville","Edgard Olvera",NA,NA,NA,NA,-96.977545,32.9926992,"1"
"104",1485,"Scotties #1","401 W. Hawkins Pkwy., Longview, TX 75605","Off Premise",75605,"Ronnie Esposito","BF851762","Gregg","Longview","Dalton Davis",NA,NA,NA,NA,-94.754946,32.5471865,"1"
"105",1486,"Scotties #2","1155 E. Hawkins Pkwy., Longview, TX 75605","Off Premise",75605,"Ronnie Esposito","BF977934","Gregg","Longview","Dalton Davis",NA,NA,NA,NA,-94.7197039,32.5469863,"1"
"106",1487,"Harley's #22","600 E. Marshall Ave., Longview, TX 75601","Off Premise",75601,"Ronnie Esposito","P692931","Gregg","Longview","Dalton Davis",NA,NA,NA,NA,-94.7321967,32.5007766,"1"
"107",1488,"Harley's #19","1302 Loop 281 West, Longview, TX 75604","Off Premise",75604,"Ronnie Esposito","P692937","Gregg","Longview","Dalton Davis",NA,NA,NA,NA,-94.771421,32.5315453,"1"
"108",1489,"Herb & Dee's Break Room","1408 W. Marshall Ave., Longview, TX 75604","On Premise",75604,"Ronnie Esposito","N921491","Gregg","Longview","Dalton Davis",NA,NA,NA,NA,-94.7695226,32.5036499,"1"
"109",1496,"Dough Bro's Italian Kitchen","5181 Keller Springs, Dallas, TX 75248","On Premise",75248,"Ethan Garrison","RM772303","Dallas","Dallas","Harrison Boyland",NA,NA,NA,NA,-96.8204877,32.9690932,"1"
"110",1497,"Whistle Britches","6110 Frankford Road, Dallas, TX 75252","On Premise",75252,"Hudson Boyd","RM896002","Dallas","Dallas","Harrison Boyland",NA,NA,NA,NA,-96.7995589,32.9977368,"1"
"111",1500,"Cigarette Mart - Lewisville","998 N. Garden Ridge Blvd., Lewisville, TX 75077","Off Premise",75077,"Brian Schick","BQ798936","Denton","Lewisville","Edgard Olvera",NA,NA,NA,NA,-97.0362787,33.0562921,"1"
"112",1501,"Muddy Jake's Sports Grille & Pub","229 Main St, Sulphur Springs, TX 75482","On Premise",75482,"Ronnie Esposito","RM857153","Hopkins","Sulphur Springs","Dalton Davis",NA,NA,NA,NA,-95.6027818,33.1378817,"1"
"113",1504,"Museum Hospitality Inc. - Kimbell Art Museum","3333 Camp Bowie Blvd., Fort Worth, TX 76107","On Premise",76107,"Brandon Pitzer","BG440055","Tarrant","Fort Worth","Kevin Whitehorse",NA,NA,NA,NA,-97.3650766,32.7486463,"1"
"114",1507,"Scotties - Rockwall","2860 Ridge Road, Rockwall, TX 75032","Off Premise",75032,"Brandon Byrd","BF693288","Rockwall","Rockwall","James Hall",NA,NA,NA,NA,-96.471753,32.892704,"1"
"115",1513,"WFM #10627 - Irving","6741 N. MacArthur Blvd., Irving, TX 75039","Off Premise",75039,"Justin Page","BG941010","Dallas","Irving","Jack Stephenson",NA,NA,NA,NA,-96.9603382,32.9013187,"1"
"116",1514,"Cheer Spirits & Liquor - Longhorn Rd","1201 Longhorn Rd Suite 125, Fort Worth, TX 76179","Off Premise",76179,"Justin Page","BF977479","Tarrant","Fort Worth","James Liston",NA,NA,NA,NA,-97.3847062,32.8473961,"1"
"117",1517,"Big Papa's Liquor - Longview","880 E Loop 281, Longview, TX 75605","Off Premise",75605,"Ronnie Esposito","BF759422","Gregg","Longview","Dalton Davis",NA,NA,NA,NA,-94.7041316,32.5286579,"1"
"118",1518,"3 Flights Up","2832 Eldorado Pkwy, Little Elm, TX 75068","On Premise",75068,"Hudson Boyd","BG971775","Denton","Little Elm","Edgard Olvera",NA,NA,NA,NA,-96.8851827,33.1768647,"1"
"119",1519,"Cooter's Spirits","300 W. Walcott, Jefferson, TX 75657","Off Premise",75657,"Ronnie Esposito","BF759224","Marion","Jefferson","Dalton Davis",NA,NA,NA,NA,-94.3542048,32.7592016,"1"
"120",1523,"Panther Quick Stop","4405 GIlmer Road, Longview, TX 75604","Off Premise",75604,"Ronnie Esposito","BQ976205","Gregg","Longview","Dalton Davis",NA,NA,NA,NA,-94.8046196,32.56564,"1"
"121",1524,"Twisted Sisters Wine & Finds","104 E. Market Street, Mabank, TX 75147","Off Premise",75147,"Ronnie Esposito","BG976924","Kaufman","Mabank","David Cash",NA,NA,NA,NA,-96.1008171,32.3660858,"1"
"122",1525,"Hopdoddy - Fort Worth","2300 W. 7th Street, Fort Worth, TX 76107","On Premise",76107,"Brandon Pitzer","MB987209","Tarrant","Fort Worth","Kevin Whitehorse",NA,NA,NA,NA,-97.3501788,32.7513197,"1"
"123",1528,"Roast Social Kitchen - Tyler","1125 E 5th St, Tyler, TX 75701","On Premise",75701,"Ronnie Esposito","RM910339","Smith","Tyler","Dalton Davis",NA,NA,NA,NA,-95.28768,32.3318484,"1"
"124",1530,"Thumbs Up Liquor & Tobacco - Sherman","1711 N FM 1417, Sherman, TX 75092","Off Premise",75092,"Mason Lowe","BF985824","Grayson","Sherman","Harrison Boyland",NA,NA,NA,NA,-96.6417838,33.6501896,"1"
"125",1532,"Houston's Discount","8886 Hwy 34 South, Quinline, TX 75474","Off Premise",75474,"Brandon Byrd","BF770746","Hunt","Quinline","Dalton Davis",NA,NA,NA,NA,-96.128459,32.906028,"1"
"126",1533,"Gilmer Beer Barn","1002 Hwy 154 West, Gilmer, TX 75644","Off Premise",75644,"Ronnie Esposito","BQ953024","Upshur","Gilmer","Dalton Davis",NA,NA,NA,NA,-94.9607086,32.7288889,"1"
"127",1534,"The Chuggin Monk","2301 N. Collins Street, Arlington, TX 76011","On Premise",76011,"Brandon Pitzer","MB869171","Tarrant","Arlington","Mike Harrison",NA,NA,NA,NA,-97.0959307,32.7729556,"1"
"128",1539,"Spec's #80 - Wichita Falls","4319 Kemp Blvd., Wichita Falls, TX 76308","Off Premise",76308,"Nathan Zaremba","BF987341","Wichita","Wichita Falls","Charles_3",NA,NA,NA,NA,-98.5334809,33.8638819,"1"
"129",1542,"Allen Liquor 4 U","1210 E. Main Street, Allen, TX 75002","Off Premise",75002,"Mason Lowe","BF949111","Collin","Allen","Mike Harrison",NA,NA,NA,NA,-96.6405125,33.0990524,"1"
"130",1543,"The Lazy Moose","1404 West Magnolia Ave., Fort Worth, TX 76104","On Premise",76104,"Brandon Pitzer","MB961330","Tarrant","Fort Worth","Kevin Whitehorse",NA,NA,NA,NA,-97.3406488,32.7308259,"1"
"131",1548,"Harlowe MXN","2823 Main Street, Dallas, TX 75226","On Premise",75226,"Dominique Van Ausdall","MB973529","Dallas","Dallas","James Hall",NA,NA,NA,NA,-96.7824464,32.7842785,"1"
"132",1549,"Ellen's Southern Kitchen","1701 N. Market Street, Dallas, TX 75202","On Premise",75202,"Dominique Van Ausdall","MB819540","Dallas","Dallas","James Hall",NA,NA,NA,NA,-96.8072599,32.7815638,"1"
"133",1550,"Stop & Get One","6940 Baker Blvd., Richland Hills, TX 76118","Off Premise",76118,"Justin Page","BQ493311","Tarrant","Richland Hills","James Liston",NA,NA,NA,NA,-97.232598,32.8087044,"1"
"134",1553,"The Boardroom Whisky and Cigar Lounge","1708 8th Avenue, Fort Worth, TX 76110","On Premise",76110,"Brandon Pitzer","MB9797498","Tarrant","Fort Worth","Kevin Whitehorse",NA,NA,NA,NA,-97.3440206,32.7262944,"1"
"135",1563,"1836 Texas Kitchen","2467 Crow Road, Tyler, TX 75703","On Premise",75703,"Ronnie Esposito","RM972197","Smith","Tyler","Dalton Davis",NA,NA,NA,NA,-95.3304941,32.2870523,"1"
"136",1565,"Northside Remedy","215 N MAIN STREET, Weatherford, TX 76086","On Premise",76086,"Brandon Pitzer","N 982410","Parker","Weatherford","James Liston",NA,NA,NA,NA,-97.7976682,32.7611605,"1"
"137",1566,"Pecan Point Brewing - Texarkana","213 Main St., Texarkana, TX 75501","On Premise",75501,"Ronnie Esposito","RM872401","Bowie","Texarkana","Dalton Davis",NA,NA,NA,NA,-94.0446451,33.4213505,"1"
"138",1571,"Total Wine #523 - Alliance Center","3101 Texas Sage Trail, Fort Worth, TX 76117","Off Premise",76117,"Jack Stephenson","BF991075","Tarrant","Fort Worth","Edgard Olvera",NA,NA,NA,NA,-97.3117815,32.9135916,"1"
"139",1575,"Cork & Growler","8979 FM 423, Frisco, TX 75034","On Premise",75034,"Hudson Boyd","BG992056","Collin","Frisco","Mike Harrison",NA,NA,NA,NA,-96.8909956,33.1518504,"1"
"140",1576,"Shop Smoke N Beverage","2011 W Spring Creek Parkway, Suite 50, Plano, TX 75023","Off Premise",75023,"Mason Lowe","BF892652","Collin","Plano","James Liston",NA,NA,NA,NA,-96.7317961,33.0598079,"1"
"141",1580,"Hooters - FW DT","150 Throckmorton Street, Fort Worth, TX 76102","On Premise",76102,"Brandon Pitzer","MB978190","Tarrant","Fort Worth","Kevin Whitehorse",NA,NA,NA,NA,-97.3342718,32.7551032,"1"
"142",1581,"Big Papa's Cafe - Longview","880 E Loop 281, Longview, TX 75605","On Premise",75605,"Ronnie Esposito","BF759432","Gregg","Longview","Dalton Davis",NA,NA,NA,NA,-94.7041316,32.5286579,"1"
"143",1598,"Diamond Shamrock - Tyler","2431 Loop 323 E SE, Tyler, TX 75701","Off Premise",75701,"Ronnie Esposito","BQ831125","Smith","Tyler","Dalton Davis",NA,NA,NA,NA,-95.2689457,32.312474,"1"
"144",1599,"University Pub","3019 s University Drive, Fort Worth, TX 76102","On Premise",76102,"Brandon Pitzer","MB435354","Tarrant","Fort Worth","Kevin Whitehorse",NA,NA,NA,NA,-97.3601544,32.7071306,"1"
"145",1600,"Reservoir","1001 FOCH STREET, Fort Worth, TX 76107","On Premise",76107,"Brandon Pitzer","MB818149","Tarrant","Fort Worth","Mike Harrison",NA,NA,NA,NA,-97.3561464,32.7489579,"1"
"146",1601,"Hops and Vines - Irving","313 E Las Colinas Blvd, Irving, TX 75039","On Premise",75039,"Nathan Zaremba","BG983829","Dallas","Irving","Kevin Whitehorse",NA,NA,NA,NA,-96.9375756,32.8656314,"1"
"147",1602,"Nancy's Liquor","1302 W. Kennedale Pkwy, Kennedale, TX 76060","Off Premise",76060,"Justin Page","BF967219","Tarrant","Kennedale","Kevin Whitehorse",NA,NA,NA,NA,-97.2404697,32.665228,"1"
"148",1616,"Chicken Moto - Richardson","2069 N Central Expressway Suite 200, Richardson, TX 75080","On Premise",75080,"Ethan Garrison","BG954483","Dallas","Richardson","James Hall",NA,NA,NA,NA,-96.7160786,32.9774665,"1"
"149",1617,"The Alcove - Sulphur Springs","101 N Gilmer St., Sulphur Springs, TX 75482","On Premise",75482,"Ronnie Esposito","BH964272","Hopkins","Sulphur Springs","David Cash",NA,NA,NA,NA,-95.6017146,33.1377983,"1"
"150",1618,"Sigel's - Anna","801 county road 286, Anna, TX 75409","Off Premise",75409,"House Accounts DFW","BF816151","Collin","Anna","Charles_3",NA,NA,NA,NA,-96.59153,33.343195,"1"
"151",1619,"Double Eagle Liquor","8455 Boat Club Road #150, Fort Worth, TX 76179","Off Premise",76179,"Brian Schick","P 983273","Tarrant","Fort Worth","James Hall",NA,NA,NA,NA,-97.4266014,32.8769817,"1"
"152",1620,"Craft Corner - Flint","18910 FM 2493, Flint, TX 75762","On Premise",75762,"Ronnie Esposito","BQ827151","Smith","Flint","David Cash",NA,NA,NA,NA,-95.3489439,32.2045524,"1"
"153",1623,"T.B.D Kitchen - Lewisville","2560 King Arthur Blvd, Lewisville, TX 75056","On Premise",75056,"Nathan Zaremba","RM923467","Denton","Lewisville","Edgard Olvera",NA,NA,NA,NA,-96.8983597,33.0353472,"1"
"154",1628,"Old Chicago - Tyler","405 W Southwest Loop 323, Tyler, TX 75701","On Premise",75701,"Ronnie Esposito","RM955992","Smith","Tyler","Dalton Davis",NA,NA,NA,NA,-95.304521,32.3032928,"1"
"155",1631,"THE MARKET AT LAKESIDE","2500 LAKESIDE PARKWAY, Flower Mound, TX 75022","Off Premise",75022,"Brian Schick","BQ974052","Denton","Flower Mound","Edgard Olvera",NA,NA,NA,NA,-97.0663565,32.9938643,"1"
"156",1632,"ACE High Liquor - Winona","319 S Main St, Winona, TX 75792","Off Premise",75792,"Ronnie Esposito","P901048","Smith","Winona","Dalton Davis",NA,NA,NA,NA,-95.16844,32.4877356,"1"
"157",1633,"Meals on Wheels and Senior Services","2133 Summer Lee Dr, Rockwall, TX 75087","On Premise",75087,"House Accounts DFW","SB2784664","Rockwall","Rockwall","Kevin Whitehorse",NA,NA,NA,NA,-96.4791979,32.8904317,"1"
"158",1636,"State Draft House - Flower Mound","1050 Flower Mound rd, Flower Mound, TX 75028","On Premise",75028,"Nathan Zaremba","RM988592","Denton","Flower Mound","Mike Harrison",NA,NA,NA,NA,-97.044047,33.0109264,"1"
"159",1644,"Reggis Liquor #75 - Sherman","2916 Hwy 75 North Suite 100, Sherman, TX 75090","Off Premise",75090,"Mason Lowe","BF987502","Grayson","Sherman","Harrison Boyland",NA,NA,NA,NA,-96.6130249,33.6692477,"1"
"160",1645,"Truelove - Waco","414 Franklin Ave., Waco, TX 76701","On Premise",76701,"Mark Molkenbuhr","MB762038","McLennan","Waco","Edgard Olvera",NA,NA,NA,NA,-97.1302938,31.5561977,"1"
"161",1646,"Chapman's River Bend Liquor - Waco","5102 N 19th Street Suite 101, Waco, TX 76708","Off Premise",76708,"Mark Molkenbuhr","BF418895","McLennan","Waco","Edgard Olvera",NA,NA,NA,NA,-97.1872345,31.5927776,"1"
"162",1648,"Still on the Corner - Gainesville","1030 E California St., Gainesville, TX 76240","Off Premise",76240,"Mason Lowe","BF532599","Cooke","Gainesville","Edgard Olvera",NA,NA,NA,NA,-97.1347264,33.6239039,"1"
"163",1649,"Driggs Liquor #3 - Denison","3000 s Woodlawn, Denison, TX 75020","Off Premise",75020,"Mason Lowe","BF056308","Grayson","Denison","Harrison Boyland",NA,NA,NA,NA,-96.5553957,33.7266566,"1"
"164",1653,"Barrel And Bones - The Colony","2801 Plano Pkwy Suite 140, The Colony, TX 75056","On Premise",75056,"Hudson Boyd","MB984390","Denton","The Colony","Edgard Olvera",NA,NA,NA,NA,-96.8645647,33.0576489,"1"
"165",1654,"Shax Liquor - Little Elm","26730 US-380 Suite 200, Little Elm, TX 75068","Off Premise",75068,"Brian Schick","BF855230","Denton","Little Elm","Edgard Olvera",NA,NA,NA,NA,-96.9366187,33.2204326,"1"
"166",1659,"Quick Track - Melissa","2436 Sam Rayburn Hwy, Melissa, TX 75454","Off Premise",75454,"Mason Lowe","BQ8825588","Collin","Melissa","Harrison Boyland",NA,NA,NA,NA,-96.5664741,33.2795649,"1"
"167",1661,"Main Street Beer and Wine - Crowley","105 S Crowley Rd, Crowley, TX 76036","Off Premise",76036,"Justin Page","BQ908998","Tarrant","Crowley","Kevin Whitehorse",NA,NA,NA,NA,-97.3532384,32.5782803,"1"
"168",1666,"Zoli's NY PIzza - Addison","14910 Midway Rd., Addison, TX 75001","On Premise",75001,"Ethan Garrison","MB844986","Dallas","Addison","Edgard Olvera",NA,NA,NA,NA,-96.8384918,32.9512888,"1"
"169",1684,"Woody Creek BBQ","1776 Mall Circle, Fort Worth, TX 76116","On Premise",76116,"Brandon Pitzer","BG744652","Tarrant","Fort Worth","Kevin Whitehorse",NA,NA,NA,NA,-97.4386768,32.7439086,"1"
"170",1688,"R.G. Liquor Beer And Wine - Plano","5301 Alma Drive Suite B, Plano, TX 75023","Off Premise",75023,"Mason Lowe","BF980725","Collin","Plano","Mike Harrison",NA,NA,NA,NA,-96.7101503,33.0530386,"1"
"171",1689,"Fresh Brookshire's #801 - Tyler","6991 Old Jacksonville Hwy, Tyler, TX 75703","Off Premise",75703,"Ronnie Esposito","BQ827625","Smith","Tyler","David Cash",NA,NA,NA,NA,-95.3403996,32.2720623,"1"
"172",1691,"Paradise Liquor - Denton","6504 Hwy 380 E Crossroads, Denton, TX 76227","Off Premise",76227,"Brian Schick","BF976953","Denton","Denton","Edgard Olvera",NA,NA,NA,NA,-97.0021254,33.2304756,"1"
"173",1693,"McGarrities Saloon - Jefferson","208 W Dallas St., Jefferson, TX 75657","On Premise",75657,"Ronnie Esposito","RM936198","Marion","Jefferson","Dalton Davis",NA,NA,NA,NA,-94.3452138,32.7551113,"1"
"174",1697,"MH Cafe - Addison","3870 Ponte Ave., Addison, TX 75001","On Premise",75001,"Ethan Garrison","RM883509","Dallas","Addison","Edgard Olvera",NA,NA,NA,NA,-96.8513369,32.9351514,"1"
"175",1700,"Silver Grizzly - Longview","100 W Tyler St., Longview, TX 75601","On Premise",75601,"Ronnie Esposito","BG963712","Gregg","Longview","Dalton Davis",NA,NA,NA,NA,-94.7405011,32.4951704,"1"
"176",1706,"30 Burger - Texarkana","4719 Texas Blvd., Texarkana, TX 75503","On Premise",75503,"Ronnie Esposito","BG969077","Bowie","Texarkana","Dalton Davis",NA,NA,NA,NA,-94.0465603,33.4610109,"1"
"177",1707,"Heritage Wine & Spirits - Longview","2000 N Eastman Rd., Longview, TX 75601","Off Premise",75601,"Ronnie Esposito","BF963122","Gregg","Longview","Dalton Davis",NA,NA,NA,NA,-94.7155271,32.520918,"1"
"178",1708,"Golden Eagle Beer and Wine - Diana","1970 Us Highway 259 Suite 102, Diana, TX 75640","Off Premise",75640,"Ronnie Esposito","BQ932492","Upshur","Diana","Dalton Davis",NA,NA,NA,NA,-94.752086,32.6998084,"1"
"179",1720,"Lone Star Liquor - Lone Star","304 N Main St., Lone Star, TX 75668","Off Premise",75668,"Ronnie Esposito","BF781750","Morris","Lone Star","Dalton Davis",NA,NA,NA,NA,-94.7104153,32.9449524,"1"
"180",1729,"Roots Coffee - Richland Hills","9101 TX-26 #101, Richland Hills, TX 76180","On Premise",76180,"Nathan Zaremba","BG970053","Tarrant","Richland Hills","James Liston",NA,NA,NA,NA,-97.1929725,32.8501021,"1"
"181",1739,"Weatherford DT Business Alliance","315 Santa Fe Dr. Amphitheater, Weatherford, TX 76086","On Premise",76086,"Brandon Pitzer","TB2788310","Parker","Weatherford","James Liston",NA,NA,NA,NA,-97.7912738,32.7564487,"1"
"182",1743,"Marty B's - Bartonville","2664 FM 407 E, Bartonville, TX 76226","On Premise",76226,"Nathan Zaremba","RM997637","Denton","Bartonville","James Liston",NA,NA,NA,NA,-97.1386829,33.1031361,"1"
"183",1749,"Double H Package Store - Quitman","304 Richards ST, Quitman, TX 75783","Off Premise",75783,"Ronnie Esposito","BF919149","Wood","Quitman","Dalton Davis",NA,NA,NA,NA,-95.4583367,32.7884865,"1"
"184",1751,"Half Pint Taproom & Restoration Hall","817 Ohio Ave., Witchitafalls, TX 76301","On Premise",76301,"Nathan Zaremba","MB984885","Wichita","Witchitafalls","Jose Vital",NA,NA,NA,NA,-98.4888984,33.9128123,"1"
"185",1758,"Euless Food Store","305 W Euless Blvd., Euless, TX 76040","Off Premise",76040,"Justin Page","BQ977653","Tarrant","Euless","James Liston",NA,NA,NA,NA,-97.0868202,32.8352704,"1"
"186",1760,"The Draft in Kingwood","23692 Eastex Fwy Suite D, KIngwood, TX 77339","On Premise",77339,"Jami Ontiveros","MB1008631","Harris_2","KIngwood","Kevin Whitehorse",NA,NA,NA,NA,-95.2528684,30.0478129,"1"
"187",1767,"Bryd & Mike's Chestnut st. Pub & Grill (Best Burge","100 W Chestnut St., Denison, TX 75021","On Premise",75021,"Mason Lowe","MB930988","Grayson","Denison","Harrison Boyland",NA,NA,NA,NA,-96.5355407,33.7540639,"1"
"188",1769,"The Liquor Outpost - Fort Worth","4300 Western Center Blvd., Fort Worth, TX 76137","On Premise",76137,"Brian Schick","BF982637","Tarrant","Fort Worth","James Liston",NA,NA,NA,NA,-97.293279,32.8609672,"1"
"189",1771,"Northside Drafthouse and Eatery - Richardson","3000 Northside Blvd. Suite 800, Richardson, TX 75080","On Premise",75080,"Ethan Garrison","RM995368","Collin","Richardson","Harrison Boyland",NA,NA,NA,NA,-96.7498054,32.9934413,"1"
"190",1773,"City Works -FW","5288 MONAHANS AVENUE, Fort Worth, TX 76109","On Premise",76109,"Brandon Pitzer","MB995047","Tarrant","Fort Worth","Kevin Whitehorse",NA,NA,NA,NA,-97.4016465,32.7093217,"1"
"191",1776,"The Den - Quitman","101 E Lipscomb St., Quitman, TX 75783","On Premise",75783,"Ronnie Esposito","RM997040","Wood","Quitman","Dalton Davis",NA,NA,NA,NA,-95.4518187,32.7964397,"1"
"192",1778,"Jimmy Nardello's - Mount Pleasany","103 N Madison Ave., Mount Pleasant, TX 75455","On Premise",75455,"Ronnie Esposito","BG967929","Titus","Mount Pleasant","Dalton Davis",NA,NA,NA,NA,-94.9697725,33.1568991,"1"
"193",1779,"The Farmer's Wife - Mount Pleasant","210 N Madison Ave., Mount Pleasant, TX 75455","On Premise",75455,"Ronnie Esposito","BQ967934","Titus","Mount Pleasant","Dalton Davis",NA,NA,NA,NA,-94.9693055,33.1580348,"1"
"194",1782,"The Heights - Dallas","2015 Abrams Pkwy, Dallas, TX 75214","On Premise",75214,"Dominique Van Ausdall","MB905202","Dallas","Dallas","James Hall",NA,NA,NA,NA,-96.7531624,32.8144457,"1"
"195",1795,"Hopkins Icehouse - Texarkana","4030 Gibson Ln., Texarkana, TX 75503","Off Premise",75503,"Ronnie Esposito","RM921524","Bowie","Texarkana","Dalton Davis",NA,NA,NA,NA,-94.0935143,33.45969,"1"
"196",1798,"Urban Alchemy - Arlington","403 E Main St., Arlington, TX 76010","On Premise",76010,"Brandon Pitzer","BG991648","Tarrant","Arlington","Kevin Whitehorse",NA,NA,NA,NA,-97.1029459,32.7367366,"1"
"197",1799,"Yard House - Irving","320 W Las Colinas Blvd. 120, Irving, TX 75039","On Premise",75039,"Nathan Zaremba","MB986536","Dallas","Irving","Kevin Whitehorse",NA,NA,NA,NA,-96.9442082,32.8747599,"1"
"198",1801,"Sunshine #3 - Sherman","201 S Dewey Ave., Sherman, TX 75090","Off Premise",75090,"Mason Lowe","BQ611207","Grayson","Sherman","Kevin Whitehorse",NA,NA,NA,NA,-96.5882785,33.6397382,"1"
"199",1803,"Duke's Icehouse - Addison","1601 Addison Rd., Addison, TX 75001","On Premise",75001,"Ethan Garrison","MB999848","Dallas","Addison","Harrison Boyland",NA,NA,NA,NA,-96.8303383,32.9706511,"1"
"200",1810,"Black Jack Package - Cumby","227 I 30 Northeast, Comby, TX 75433","Off Premise",75433,"Ronnie Esposito","BF549381","Hopkins","Comby","Dalton Davis",NA,NA,NA,NA,-101.9250568,33.5957279,"1"
"201",1812,"Liquor King - Greenville Ave","105 Greenville Ave., Allen, TX 75002","Off Premise",75002,"Mason Lowe","BF1000061","Collin","Allen","Mike Harrison",NA,NA,NA,NA,-96.6626068,33.101221,"1"
"202",1813,"Off the Record - FW","715 W Magnolia, Fort Worth, TX 76104","On Premise",76104,"Brandon Pitzer","MB631004","Tarrant","Fort Worth","Kevin Whitehorse",NA,NA,NA,NA,-97.3320864,32.7303146,"1"
"203",1814,"Liquor King - E Exchange","1512 E Exchange Pkwy, Allen, TX 75002","Off Premise",75002,"Mason Lowe","BF1000059","Collin","Allen","Mike Harrison",NA,NA,NA,NA,-96.6301398,33.1139503,"1"
"204",1815,"Market Street #685 - Legacy Dr.","4268 Legacy Dr., Frisco, TX 75034","Off Premise",75034,"Mason Lowe","BG1004438","Denton","Frisco","Mike Harrison",NA,NA,NA,NA,-96.8376442,33.1146838,"1"
"205",1824,"Red Brick Tavern - Conroe","119 Simonton, Conroe, TX 77301","On Premise",77301,"Jami Ontiveros","MB782956","Montgomery","CONROE","Charles_3",NA,NA,NA,NA,-95.4566782,30.3111183,"1"
"206",1826,"Local Boys Liquor - Wichita Falls","2731 Southwest Pkwy, Wichita Falls, TX 76308","Off Premise",76308,"Nathan Zaremba","BF861393","Wichita","Wichita Falls","Jose Vital",NA,NA,NA,NA,-98.5353651,33.8571546,"1"
"207",1831,"Avery Ranch Golf Club","10500 Avery club Dr., Austin, TX 78717","On Premise",78717,"Blake Russell","MB952349","Travis","AUSTIN","John Munoz",NA,NA,NA,NA,-97.773624,30.502852,"1"
"208",1832,"Teravista Golf Club","4333 Terravista Club Dr., ROUND ROCK, TX 78665","On Premise",78665,"Blake Russell","BG917833","Williamson","ROUND ROCK","Charles_3",NA,NA,NA,NA,-97.6703682,30.5726026,"1"
"209",1834,"Pacific Yard House - Conroe","101 Metcalf St., CONROE, TX 77301","On Premise",77301,"Jami Ontiveros","MB987126","Montgomery","CONROE","None",NA,NA,NA,NA,-95.4562605,30.310133,"1"
"210",1837,"Mojo's Sports Grille - Houston","18323 W Lake Houston Pkwy, HOUSTON, TX 77346","On Premise",77346,"Jami Ontiveros","MB786177","Harris","HOUSTON","Charles_3",NA,NA,NA,NA,-95.162021,29.983903,"1"
"211",1859,"Kyle's Kwik Stop #5 - Judson Rd","1401 Judson rd, Longview, TX 75601","Off Premise",75601,"Ronnie Esposito","BG808909","Gregg","Longview","Dalton Davis",NA,NA,NA,NA,-94.7406536,32.5159676,"1"
"212",1872,"Parden My French - Galveston","2317 Strand St., Galveston, TX 77550","On Premise",77550,"Jami Ontiveros","BQ932149","Galveston","Galveston","None",NA,NA,NA,NA,-94.794968,29.30686,"1"
"213",1875,"J. Henry's Draught - Galveston","1105 Clear Lake City Blvd., Houston, TX 77062","On Premise",77062,"Jami Ontiveros","BG901103","Harris","HOUSTON","Charles_3",NA,NA,NA,NA,-95.1556285,29.5823687,"1"
"214",1879,"Hardwood beer and Wine - Bedford","2906 Brown Trail, Bedford, TX 76021","Off Premise",76021,"Justin Page","BF996708","Tarrant","Bedford","James Liston",NA,NA,NA,NA,-97.1598986,32.8536299,"1"
"215",1883,"Tom Thumb #3652 - Timbers Rd.","745 Cross Timbers Rd., Flower Mound, TX 75028","Off Premise",75028,"Brian Schick","BQ455445","Denton","Flower Mound","Edgard Olvera",NA,NA,NA,NA,-97.0381692,33.0410563,"1"
"216",1886,"Duff's Famous Wings","2787 E Southlake BLVD, Southlake, TX 76092","On Premise",76092,"Nathan Zaremba","MB829089","Tarrant","Southlake","James Liston",NA,NA,NA,NA,-97.1078862,32.9378281,"1"
"217",1887,"New Main Brewing","3533 Marathon St, Pantego, TX 76013","On Premise",76013,"Brandon Pitzer","BP1000868","Tarrant","Pantego","None",NA,NA,NA,NA,-97.1608935,32.7131469,"1"
"218",1889,"Spec's #123 - Denton South","2315 Colorado Blvd., Denton, TX 76205","Off Premise",76205,"Jack Stephenson","BF996567","Denton","Denton","None",NA,NA,NA,NA,-97.103051,33.1912228,"1"
"219",1890,"Fielding's Wood Grill","1699 Research Forest Dr., Shenandoah, TX 77380","On Premise",77380,"Jami Ontiveros","MB852975","Montgomery","Shenandoah","None",NA,NA,NA,NA,-95.4616041,30.1763906,"1"
"220",1893,"Pig Liquors - San Antonio","519 S Presa, San Antonio, TX 78205","Off Premise",78205,"House Accounts DFW","BF744783","Bexar","San Antonio","Joe Castro",NA,NA,NA,NA,-98.4895415,29.4173421,"1"
"221",1898,"Purple Tako - The Colony","6855 Windhaven Pkwy, The Colony, TX 75056","On Premise",75056,"Nathan Zaremba","RM998644","Denton","The Colony","Mark Molkenbuhr",NA,NA,NA,NA,-96.847747,33.0561658,"1"
"222",1902,"Mama's Pizza - Fort Worth","5800 Camp Bowie Ft. Worth,, Fort Worth, TX 76107","On Premise",76107,"Brandon Pitzer","BG699978","Tarrant","Fort Worth","Kevin Whitehorse",NA,NA,NA,NA,-97.4106342,32.7315285,"1"
"223",1906,"Fizola Market - Cedar Park","700 N Vista Ridge Blvd., CEDAR PARK, TX 78613","On Premise",78613,"Blake Russell","BQ866569","Williamson","CEDAR PARK","John Munoz",NA,NA,NA,NA,-97.7896753,30.5284221,"1"
"224",1909,"OffRhodes Craft Beer Station - Landa St.","133 Landa St., NEW BRAUNFELS, TX 78130","On Premise",78130,"Josh Jennings","BG993449","Comal","NEW BRAUNFELS","John Munoz",NA,NA,NA,NA,-98.1317757,29.7050388,"1"
"225",1911,"Tapped - Spring","20444 Kuykendahl Rd., SPRING, TX 77379","On Premise",77379,"Jami Ontiveros","BG969467","Harris","SPRING","Charles_3",NA,NA,NA,NA,-95.504944,30.0681708,"1"
"226",1913,"Craft Grill Restaurant - Tomball","25219 Kuykendahl Rd., Tomball, TX 77375","On Premise",77375,"Jami Ontiveros","MB922190","Harris","Tomball","Charles_3",NA,NA,NA,NA,-95.55455,30.1278025,"1"
"227",1923,"Eskimo Hut - Austin","1045 Norwood Park Blvd, AUSTIN, TX 78653","On Premise",78653,"House Accounts ATX","BG958476","Travis","AUSTIN","Charles_3",NA,NA,NA,NA,-97.6923729,30.3379937,"1"
"228",1938,"Kwik Serv - Woodson Rd.","27328 Woodson Rd., Oak Ridge North, TX 77385","On Premise",77385,"Jami Ontiveros","BF740754","Montgomery","Oak Ridge North","Charles_3",NA,NA,NA,NA,-95.4441011,30.1649095,"1"
"229",1945,"Cosmic Coffee and Beer Garden - Austin","121 Pickle Rd., AUSTIN, TX 78704","On Premise",78704,"Tim Vela","MB872381","Travis","AUSTIN","John Munoz",NA,NA,NA,NA,-97.7629773,30.2274747,"1"
"230",1946,"AJ Spirits Wine & Gifts - Little Elm","1725 E Eldorado Pkwy, Little Elm, TX 75068","Off Premise",75068,"Brian Schick","BF980730","Denton","Little Elm","Edgard Olvera",NA,NA,NA,NA,-96.9072042,33.1689939,"1"
"231",1949,"Nobi Public House - Webster","241 E Nasa Pkwy, Webster, TX 77598","On Premise",77598,"Jami Ontiveros","BG825144","Harris","Webster","Charles_3",NA,NA,NA,NA,-95.1169267,29.5391596,"1"
"232",1953,"Mom's Store #5 - Austin","10900 US 290, AUSTIN, TX 78737","Off Premise",78737,"Josh Jennings","BF715153","Travis","AUSTIN","Joe Castro",NA,NA,NA,NA,-97.9567749,30.2223331,"1"
"233",1954,"Dukes - Mount Vernon","300 IH 30 East, Mount Vernon, TX 75103","Off Premise",75103,"Ronnie Esposito","BQ1004210","FranklinOrig","Mount Vernon","David Cash",NA,NA,NA,NA,-95.2160982,33.163398,"1"
"234",1969,"Anvil Brewing - Pittsburg","115 Compress St, Pittsburg, TX 75686","On Premise",75686,"Ronnie Esposito","BG986379","Camp","Pittsburg","David Cash",NA,NA,NA,NA,-94.967303,32.9964039,"1"
"235",1973,"Cane Island Bar and Grill -Katy","4747 FM 1463 Ste 100, KATY, TX 77494","On Premise",77494,"Jami Ontiveros","MB971842","Fortbend","KATY","Charles_3",NA,NA,NA,NA,-95.8455308,29.7232289,"1"
"236",1981,"Oscar's Pub - FW","6323 Camp Bowie Blvd, Fort Worth, TX 76116","On Premise",76116,"Brandon Pitzer","MB727739","Tarrant","Fort Worth","Kevin Whitehorse",NA,NA,NA,NA,-97.4178346,32.7270249,"1"
"237",1983,"Landmark - Fort Worth","3008 Bledsoe St., Fort Worth, TX 76107","On Premise",76107,"Brandon Pitzer","MB856691","Tarrant","Fort Worth","Kevin Whitehorse",NA,NA,NA,NA,-97.3607741,32.7487016,"1"
"238",1988,"Crystal Springs Liquor - Winona","528 S Main St, Winona, TX 75792","Off Premise",75792,"Ronnie Esposito","BF755977","Smith","Winona","David Cash",NA,NA,NA,NA,-95.1688728,32.486045,"1"
"239",1991,"Main at South Side - FW","1002 S Main Street, Fort Worth, TX 76104","On Premise",76104,"Brandon Pitzer","MB978777","Tarrant","Fort Worth","Harrison Boyland",NA,NA,NA,NA,-97.3261509,32.7339316,"1"
"240",1997,"Barnett's Pub - Waco","420 Franklin Ave., Waco, TX 76701","On Premise",76701,"Mark Molkenbuhr","MB773193","McLennan","Waco","Edgard Olvera",NA,NA,NA,NA,-97.1303522,31.5559486,"1"
"241",3444,"A D Beer Wine","565 W. Oates Road, # 115, Garland, TX 75043","Off Premise",75043,"Brandon Byrd","BQ803035","Dallas","Garland","Harrison Boyland",NA,NA,NA,NA,-96.6188491,32.8471193,"1"
"242",3446,"1001 Wine and Spirits","1001 Ross Avenue, Dallas, TX 75247","Off Premise",75247,"Brandon Byrd","BF711791","Dallas","Dallas","James Hall",NA,NA,NA,NA,-96.8047068,32.782624,"1"
"243",3447,"Buy Low Food Mart & Beer","1401 E. Arapaho Road, Richardson, TX 75080","Off Premise",75080,"Brandon Byrd","BF648847","Dallas","Richardson","Harrison Boyland",NA,NA,NA,NA,-96.6990278,32.9609473,"1"
"244",3451,"Brewed","801 West Magnolia Avenue, Fort Worth, TX 76104","On Premise",76104,"Brandon Pitzer","BG816027","Tarrant","Fort Worth","Kevin Whitehorse",NA,NA,NA,NA,-97.3326419,32.7304394,"1"
"245",3453,"Bowlounge","167 Turtle Creek Blvd., Dallas, TX 75207","On Premise",75207,"Ethan Garrison","MB835451","Dallas","Dallas","James Hall",NA,NA,NA,NA,-96.8274375,32.793629,"1"
"246",3455,"Bowen House","2614 Boll Street, Dallas, TX 75204","On Premise",75204,"Ethan Garrison","MB862254","Dallas","Dallas","James Hall",NA,NA,NA,NA,-96.8019654,32.7979765,"1"
"247",3456,"Boulevardier","408 N. Bishop, # 108, Dallas, TX 75208","On Premise",75208,"Ethan Garrison","RM805600","Dallas","Dallas","James Hall",NA,NA,NA,NA,-96.8279818,32.7483544,"1"
"248",3466,"Beverage Zone","3555 Murphy Road, Suite 101, Dallas, TX 75082","Off Premise",75082,"Mason Lowe","BQ938036","Collin","Dallas","Harrison Boyland",NA,NA,NA,NA,-96.6132062,32.999746,"1"
"249",3468,"Beer and Wine World","26 E. Debbie Lane, Suite 102, Mansfield, TX 76063","Off Premise",76063,"Brandon Pitzer","BQ728219","Tarrant","Mansfield","Kevin Whitehorse",NA,NA,NA,NA,-97.1411119,32.5935925,"1"
"250",3470,"The Bearded Lady","1223 7th Avenue, Fort Worth, TX 76104","On Premise",76104,"Brandon Pitzer","MB808362","Tarrant","Fort Worth","Kevin Whitehorse",NA,NA,NA,NA,-97.3417607,32.7310876,"1"
"251",3471,"Bear Creek Spirits and Wine","7101 Colleyville Blvd., Colleyville, TX 76034","Off Premise",76034,"Brian Schick","BF762372","Tarrant","Colleyville","James Liston",NA,NA,NA,NA,-97.134213,32.9108361,"1"
"252",3474,"Barcadia - Ft. Worth","816 Matisse Drive, Fort Worth, TX 76107","On Premise",76107,"Brandon Pitzer","MB763348","Tarrant","Fort Worth","Kevin Whitehorse",NA,NA,NA,NA,-97.3521549,32.7504008,"1"
"253",3478,"Ballpark Beverage","2100 E. Lamar Blvd, Arlington, TX 76006","Off Premise",76006,"Justin Page","BQ615999","Tarrant","Arlington","Kevin Whitehorse",NA,NA,NA,NA,-97.0750134,32.7620767,"1"
"254",3489,"Alamo Drafthouse - Richardson","100 S. Central Expwy, #14, Richardson, TX 75080","On Premise",75080,"Ethan Garrison","RM845630","Dallas","Richardson","Harrison Boyland",NA,NA,NA,NA,-96.7376769,32.9498744,"1"
"255",3495,"Cadillac Pizza Pub","112 S. Kentucky Street, McKinney, TX 75071","On Premise",75071,"Hudson Boyd","RM751112","Collin","McKinney","Mike Harrison",NA,NA,NA,NA,-96.6160322,33.1967615,"1"
"256",3498,"East Side Social Club","117 E. Oak Street, Denton, TX 76201","On Premise",76201,"Nathan Zaremba","N848376","Denton","Denton","Edgard Olvera",NA,NA,NA,NA,-97.1315,33.2157359,"1"
"257",3499,"East 1st Grocery","1811 E. Cesar Chavez, AUSTIN, TX 78702","Off Premise",78702,"Tim Vela","BQ703083","Travis","AUSTIN","John Munoz",NA,NA,NA,NA,-97.7249709,30.2569908,"1"
"258",3505,"Dancing Bear Pub","1117 Speight Ave, Waco, TX 76706","On Premise",76706,"Mark Molkenbuhr","BF306476","McLennan","Waco","Harrison Boyland",NA,NA,NA,NA,-97.124501,31.5403268,"1"
"259",3506,"Dan's Food Store","1008 W. Davis St., Dallas, TX 75208","Off Premise",75208,"Brandon Byrd","BQ786524","Dallas","Dallas","James Hall",NA,NA,NA,NA,-96.8396643,32.7492537,"1"
"260",3509,"Dallas Beer Kitchen","1802 Greenville Ave., Suite 110, Dallas, TX 75206","On Premise",75206,"Dominique Van Ausdall","MB947240","Dallas","Dallas","James Hall",NA,NA,NA,NA,-96.7699006,32.812305,"1"
"261",3512,"Craft and Growler","3601 Parry Ave., Dallas, TX 75226","On Premise",75226,"Dominique Van Ausdall","BG820668","Dallas","Dallas","James Hall",NA,NA,NA,NA,-96.7667691,32.781429,"1"
"262",3516,"Corner Stop","2203 Greenville Ave., Dallas, TX 75206","Off Premise",75206,"Brandon Byrd","BF833650","Dallas","Dallas","James Hall",NA,NA,NA,NA,-96.7705794,32.8165344,"1"
"263",3524,"Choice Beverage","4600 W. Eldorado Pkwy., Suite 700, McKinney, TX 75070","Off Premise",75070,"Mason Lowe","BQ753252","Collin","McKinney","Mike Harrison",NA,NA,NA,NA,-96.6776619,33.1732969,"1"
"264",3527,"Chevron Z to A & Company","5701 McCommas Blvd., Dallas, TX 75206","Off Premise",75206,"Brandon Byrd","BQ431113","Dallas","Dallas","James Hall",NA,NA,NA,NA,-96.7699032,32.8301238,"1"
"265",3531,"Central Market #055 - Southlake","1425 Southlake, Blvd., Suite 100A, Southlake, TX 76092","Off Premise",76092,"Brian Schick","BG853449","Tarrant","Southlake","James Liston",NA,NA,NA,NA,-97.1311509,32.9390247,"1"
"266",3532,"Central Market #653 - Preston","10720 Preston Road, Suite 1018, Dallas, TX 75230","Off Premise",75230,"Brandon Byrd","BG836376","Dallas","Dallas","James Liston",NA,NA,NA,NA,-96.8035244,32.894257,"1"
"267",3533,"Central Market #546 _- Plano","320 Coit Road, Plano, TX 75075","Off Premise",75075,"Mason Lowe","BQ507576","Collin","Plano","Mike Harrison",NA,NA,NA,NA,-96.7647638,33.0021237,"1"
"268",3534,"Central Market #545 - Ft. Worth","4651 West Freeway, Fort Worth, TX 76107","Off Premise",76107,"Justin Page","BG543866","Tarrant","Fort Worth","Kevin Whitehorse",NA,NA,NA,NA,-97.3893083,32.7297616,"1"
"269",3535,"Central Market #552 - Lovers","5750 E. Lovers Lane, Dallas, TX 75206","Off Premise",75206,"Brandon Byrd","BG517385","Dallas","Dallas","James Hall",NA,NA,NA,NA,-96.7687222,32.8494985,"1"
"270",3546,"Quick Treat","2011 W. Spring Creek Pkwy, Plano, TX 75023","On Premise",75023,"Mason Lowe","BF733965","Collin","Plano","Mike Harrison",NA,NA,NA,NA,-96.7317961,33.0598079,"1"
"271",3547,"Press Box Grill","1623 Main Street, Suite 191, Dallas, TX 75201","On Premise",75201,"Dominique Van Ausdall","MB751542","Dallas","Dallas","James Hall",NA,NA,NA,NA,-96.7975281,32.7812356,"1"
"272",3550,"The Pour House - Dallas","1300 W. Davis, Dallas, TX 75208","On Premise",75208,"Ethan Garrison","RM821285","Dallas","Dallas","James Hall",NA,NA,NA,NA,-96.8431611,32.7492164,"1"
"273",3551,"Pogo's Inwood","5360 W. Lovers Lane, Dallas, TX 75209","Off Premise",75209,"Brandon Byrd","P217336","Dallas","Dallas","James Liston",NA,NA,NA,NA,-96.820444,32.8501544,"1"
"274",3559,"Parkit Market","4724 Greenville Ave, Dallas, TX 75206","Off Premise",75206,"Brandon Byrd","BF484990","Dallas","Dallas","James Hall",NA,NA,NA,NA,-96.7693497,32.8452984,"1"
"275",3560,"Paradise Spirits & Wines","1217 FM 407, West Corral City, TX 76226","Off Premise",76226,"Brian Schick","P885216","Denton","West Corral City","James Liston",NA,NA,NA,NA,-97.2265204,33.1000093,"1"
"276",3565,"One Stop Beer & Wine","456 Country Club Road, Suite 132, Wylie, TX 75098","Off Premise",75098,"Mason Lowe","BQ819604","Collin","Wylie","Harrison Boyland",NA,NA,NA,NA,-96.5680795,33.0198942,"1"
"277",3570,"Oak St. Draft House","308 E. Oak Street, Denton, TX 76201","On Premise",76201,"Nathan Zaremba","N797302","Denton","Denton","Edgard Olvera",NA,NA,NA,NA,-97.1297229,33.2153683,"1"
"278",3572,"NRH Beer and Wine","6705 Mid Cities Blvd., North Richland Hills, TX 76182","Off Premise",76182,"Justin Page","BQ798933","Tarrant","North Richland Hills","James Liston",NA,NA,NA,NA,-97.2364732,32.8608192,"1"
"279",3574,"North Oak Cliff Beer & Wine","1301 W. Davis Street, Dallas, TX 75208","Off Premise",75208,"Brandon Byrd","BF793135","Dallas","Dallas","James Hall",NA,NA,NA,NA,-96.84301,32.7496529,"1"
"280",3583,"Midway Mart","406 West Hickory, Denton, TX 76201","Off Premise",76201,"Brian Schick","BQ308007","Denton","Denton","Edgard Olvera",NA,NA,NA,NA,-97.1368841,33.2149903,"1"
"281",3584,"Metzler's - Teasley","628 Londonderry Lane, Denton, TX 76201","On Premise",76201,"Nathan Zaremba","BG411020","Denton","Denton","Edgard Olvera",NA,NA,NA,NA,-97.1252961,33.1896451,"1"
"282",3588,"Mellow Mushroom - Southlake","2820 E. Southlake Blvd., Southlake, TX 76092","On Premise",76092,"Nathan Zaremba","MB796994","Tarrant","Southlake","James Liston",NA,NA,NA,NA,-97.107088,32.938615,"1"
"283",3589,"Mellow Mushroom - Rockwall","550 I-30 East, Rockwall, TX 75087","On Premise",75087,"Hudson Boyd","RM862319","Rockwall","Rockwall","Harrison Boyland",NA,NA,NA,NA,-96.4723658,32.8975864,"1"
"284",3590,"Mellow Mushroom - McKinney","218 E. Louisiana Street, Suite 101, McKinney, TX 75069","On Premise",75069,"Hudson Boyd","RM838791","Collin","McKinney","Mike Harrison",NA,NA,NA,NA,-96.6139665,33.1970243,"1"
"285",3593,"Market Street #566 - Plano","1929 Preston Road, Plano, TX 75093","Off Premise",75093,"Mason Lowe","BQ715638","Collin","Plano","Mike Harrison",NA,NA,NA,NA,-96.7994334,33.0258076,"1"
"286",3594,"Market Street #561 - McKinney","6100 W. Eldorado Pkwy., McKinney, TX 75070","Off Premise",75070,"Mason Lowe","BQ561652","Collin","McKinney","Mike Harrison",NA,NA,NA,NA,-96.6956184,33.1752573,"1"
"287",3595,"Market Street #562 - Frisco","11999 Dallas Pkwy., Frisco, TX 75034","Off Premise",75034,"Mason Lowe","BQ697935","Denton","Frisco","Mike Harrison",NA,NA,NA,NA,-96.8429726,33.1770426,"1"
"288",3596,"Market Street #565 - Flower Mound","3800 Long Prairie Road, Flower Mound, TX 75028","Off Premise",75028,"Brian Schick","BG858628","Denton","Flower Mound","Edgard Olvera",NA,NA,NA,NA,-97.0680233,33.0371685,"1"
"289",3597,"Market Street #564 - Coppell","700 N. Denton Tap Road, Coppell, TX 75019","Off Premise",75019,"Brian Schick","BQ711775","Dallas","Coppell","Edgard Olvera",NA,NA,NA,NA,-96.9921413,32.9883257,"1"
"290",3598,"Market Street #560 - Colleyville","5605 Colleyville Blvd., Colleyville, TX 76034","Off Premise",76034,"Brian Schick","BQ541472","Tarrant","Colleyville","James Liston",NA,NA,NA,NA,-97.1468276,32.8893939,"1"
"291",3599,"Market Street #563 - Allen","985 W. Bethany Drive, Allen, TX 75013","Off Premise",75013,"Mason Lowe","BF684527","Collin","Allen","Mike Harrison",NA,NA,NA,NA,-96.684753,33.0897454,"1"
"292",3600,"Malone's Pub","1303 Calhoun Street, Fort Worth, TX 76102","On Premise",76102,"Brandon Pitzer","MB478079","Tarrant","Fort Worth","Kevin Whitehorse",NA,NA,NA,NA,-97.3258978,32.7501766,"1"
"293",3606,"LUCK","3011 Gulden Street, #112, Dallas, TX 75212","On Premise",75212,"Ethan Garrison","RM850861","Dallas","Dallas","James Hall",NA,NA,NA,NA,-96.8289867,32.779372,"1"
"294",3607,"Lone Star Beer & Wine","3065 N. Josey, # 62, Carrollton, TX 75007","Off Premise",75007,"Dominique Van Ausdall","BQ636221","Denton","Carrollton","Edgard Olvera",NA,NA,NA,NA,-96.8874839,32.9991191,"1"
"295",3609,"The Londoner - Rockwall","308 N.Fannin Street, Rockwall, TX 75087","On Premise",75087,"Hudson Boyd","RM867585","Rockwall","Rockwall","Harrison Boyland",NA,NA,NA,NA,-96.4582106,32.9329546,"1"
"296",3612,"The Londoner - Colleyville","5150 Colleyville Blvd., Colleyville, TX 76034","On Premise",76034,"Nathan Zaremba","MB828229","Tarrant","Colleyville","James Liston",NA,NA,NA,NA,-97.153986,32.8841208,"1"
"297",3614,"The Londoner - Addison","14930 Midway Road, Addison, TX 75001","On Premise",75001,"Ethan Garrison","MB570614","Dallas","Addison","Harrison Boyland",NA,NA,NA,NA,-96.838408,32.9524323,"1"
"298",3623,"Lakewood Medallion","5748 Live Oak Street, Dallas, TX 75206","Off Premise",75206,"Brandon Byrd","P897659","Dallas","Dallas","James Hall",NA,NA,NA,NA,-96.7620715,32.8112149,"1"
"299",3624,"Lakewood Growler","6448 E. Mockingbird Lane, Dallas, TX 75214","On Premise",75214,"Dominique Van Ausdall","BG860185","Dallas","Dallas","James Hall",NA,NA,NA,NA,-96.7514075,32.8354556,"1"
"300",3625,"Lake View Liquor","7826 Garland Road, Dallas, TX 75218","Off Premise",75218,"Brandon Byrd","P802852","Dallas","Dallas","James Hall",NA,NA,NA,NA,-96.7266959,32.8122427,"1"
"301",3652,"Kool Keg - Arlington","207 S. East Street, Arlington, TX 76010","On Premise",76010,"Brandon Pitzer","BQ766952","Tarrant","Arlington","Kevin Whitehorse",NA,NA,NA,NA,-97.1031771,32.7349463,"1"
"302",3655,"King's Liquors","2810 West Berry Street, Fort Worth, TX 76109","Off Premise",76109,"Justin Page","BF196425","Tarrant","Fort Worth","Kevin Whitehorse",NA,NA,NA,NA,-97.3570154,32.7066107,"1"
"303",3656,"Kelly's at the Village","190 E. Stacy Road, Suite 1204, Allen, TX 75002","On Premise",75002,"Dominique Van Ausdall","RM807580","Collin","Allen","Mike Harrison",NA,NA,NA,NA,-96.6591413,33.1267005,"1"
"304",3657,"Kegs & Barrels - Plano","1905 W. 15th Street, Plano, TX 75075","Off Premise",75075,"Mason Lowe","BF845200","Collin","Plano","Mike Harrison",NA,NA,NA,NA,-96.7308764,33.0198486,"1"
"305",3661,"Joe's Fast Lane","1234 S. Broadway Street, Sulphur Springs, TX 75482","Off Premise",75482,"Ronnie Esposito","BF828024","None","Sulphur Springs","Dalton Davis",NA,NA,NA,NA,-95.5960177,33.1173212,"1"
"306",3665,"Jack Mac's Swill & Grill","19009 Preston Road, Suite 209, Dallas, TX 75252","On Premise",75252,"Hudson Boyd","RM812643","Collin","Dallas","Harrison Boyland",NA,NA,NA,NA,-96.7960206,33.0069477,"1"
"307",3666,"J. Macklin's Grill","130 N Denton Tap Road #120, Coppell, TX 75019","On Premise",75019,"Nathan Zaremba","RM728390","Dallas","Coppell","Edgard Olvera",NA,NA,NA,NA,-96.9930283,32.9720757,"1"
"308",3669,"Inwood Tavern","7717 Inwood Road, Dallas, TX 75209","On Premise",75209,"Ethan Garrison","MB879767","Dallas","Dallas","James Liston",NA,NA,NA,NA,-96.8215807,32.850113,"1"
"309",3675,"Holy Grail","8240 Preston Road, Suite 150, Plano, TX 75204","On Premise",75204,"Hudson Boyd","RM729632","Collin","Plano","Mike Harrison",NA,NA,NA,NA,-96.8047486,33.089803,"1"
"310",3679,"HEB 16 - Burleson","165 NW John Jones Drive, Burleson, TX 76028","Off Premise",76028,"Justin Page","BQ749563","Johnson","Burleson","Kevin Whitehorse",NA,NA,NA,NA,-97.3517402,32.5200478,"1"
"311",3680,"Haystack - Richardson","100 S. Central Expressway, Suite17, Richardson, TX 75080","On Premise",75080,"Ethan Garrison","RM840141","Dallas","Richardson","Harrison Boyland",NA,NA,NA,NA,-96.7376769,32.9498744,"1"
"312",3684,"Grub Burger Bar - Dallas","4925 Greenville Ave., Dallas, TX 75206","On Premise",75206,"Dominique Van Ausdall","MB847725","Dallas","Dallas","James Hall",NA,NA,NA,NA,-96.7710648,32.8472668,"1"
"313",3689,"Grapevine Beer & Wine","2100 W. Northwest Hwy, Grapevine, TX 76051","Off Premise",76051,"Brian Schick","BQ697363","Tarrant","Grapevine","James Liston",NA,NA,NA,NA,-97.1007806,32.9431809,"1"
"314",3692,"Goody Goody - Addison","14851 Inwood Road, Addison, TX 75001","Off Premise",75001,"Brandon Byrd","BF409430","Dallas","Addison","Harrison Boyland",NA,NA,NA,NA,-96.830994,32.95099,"1"
"315",3695,"Goody Goody - Oak Lawn","3316 Oak Lawn, Dallas, TX 75219","Off Premise",75219,"Brandon Byrd","BF568306","Dallas","Dallas","James Hall",NA,NA,NA,NA,-96.8067576,32.8102854,"1"
"316",3696,"Goody Goody - Little Elm","103 FM 423, Little Elm, TX 75068","Off Premise",75068,"Brian Schick","BF671330","Denton","Little Elm","Edgard Olvera",NA,NA,NA,NA,-96.8881384,33.1699582,"1"
"317",3697,"Goody Goody - Highland Village","1950 Justin Rd, Highland Village, TX 75077","Off Premise",75077,"Brian Schick","BF455949","Denton","Highland Village","Edgard Olvera",NA,NA,NA,NA,-97.0479599,33.0722742,"1"
"318",3698,"Goody Goody - Greenville Ave.","7124 Greenville Ave, Dallas, TX 75231","Off Premise",75231,"Brandon Byrd","BF176178","Dallas","Dallas","James Hall",NA,NA,NA,NA,-96.7606238,32.8757172,"1"
"319",3700,"Goodfriend Burger","1154 Peavy Road, Dallas, TX 75218","On Premise",75218,"Dominique Van Ausdall","RM779581","Dallas","Dallas","James Hall",NA,NA,NA,NA,-96.696524,32.8390322,"1"
"320",3710,"The Foundry","2303 Pittman Street, Dallas, TX 75208","On Premise",75208,"Ethan Garrison","RM794039","Dallas","Dallas","James Hall",NA,NA,NA,NA,-96.8315408,32.7727821,"1"
"321",3711,"Fossil Creek Liquor - Plano","1100 S. Preston Road, Plano, TX 75093","Off Premise",75093,"Mason Lowe","BF848719","Collin","Plano","Mike Harrison",NA,NA,NA,NA,-96.794639,33.0155278,"1"
"322",3713,"Fossil Creek Liquor - Ft. Worth","1900 Western Center Blvd., Fort Worth, TX 76131","Off Premise",76131,"Brian Schick","BF497392","Tarrant","Fort Worth","James Liston",NA,NA,NA,NA,-97.3364234,32.8619808,"1"
"323",3718,"Fish City Grill - Irving","7750 North MacArthur Blvd., Irving, TX 75063","On Premise",75063,"Nathan Zaremba","MB806974","Dallas","Irving","James Liston",NA,NA,NA,NA,-96.9563107,32.9117086,"1"
"324",3722,"Thirteen Pies West 7th","2949 Crockett Street, Fort Worth, TX 76107","On Premise",76107,"Brandon Pitzer","MB751777","Tarrant","Fort Worth","Kevin Whitehorse",NA,NA,NA,NA,-97.3594594,32.7499602,"1"
"325",3726,"Fuel Up Mart","4331 Kelly Elliott Road, Arlington, TX 76016","Off Premise",76016,"Justin Page","BQ988569","Tarrant","Arlington","Kevin Whitehorse",NA,NA,NA,NA,-97.1771319,32.6774485,"1"
"326",3732,"Goody Goody - Colleyville","4701 Colleyville Blvd., Colleyville, TX 76034","Off Premise",76034,"Brian Schick","BF783784","Tarrant","Colleyville","James Liston",NA,NA,NA,NA,-97.1570699,32.8780683,"1"
"327",3734,"The Fillmore Pub","1004 E. 15th Street, Plano, TX 75074","On Premise",75074,"Hudson Boyd","RM663803","Collin","Plano","Mike Harrison",NA,NA,NA,NA,-96.7003649,33.0194761,"1"
"328",3736,"The Brass Tap - Ft. Worth","901 Houston Street, Suite 102, Fort Worth, TX 76102","On Premise",76102,"Brandon Pitzer","BG863361","Tarrant","Fort Worth","Kevin Whitehorse",NA,NA,NA,NA,-97.3299264,32.7516295,"1"
"329",3739,"The Bottle Shop - Ft. Worth","2805 Crockett Street, Fort Worth, TX 76107","Off Premise",76107,"Brandon Pitzer","BF764955","Tarrant","Fort Worth","Kevin Whitehorse",NA,NA,NA,NA,-97.3568088,32.75003,"1"
"330",3740,"Texas Theatre","231 W. Jefferson Road, Dallas, TX 75208","On Premise",75208,"Ethan Garrison","RM825245","Dallas","Dallas","James Hall",NA,NA,NA,NA,-96.8259721,32.7435476,"1"
"331",3744,"Taverna Rossa - Plano","4005 Preston Road, Suite 512, Plano, TX 75093","On Premise",75093,"Hudson Boyd","RM835068","Collin","Plano","Mike Harrison",NA,NA,NA,NA,-96.7953321,33.0508049,"1"
"332",3754,"Square Burger","115 N. Kentucky Street, McKinney, TX 75069","On Premise",75069,"Hudson Boyd","RM745616","Collin","McKinney","Mike Harrison",NA,NA,NA,NA,-96.6161365,33.1977832,"1"
"333",3772,"Spec's #164 - Granbury","1150 Hwy 377 East, Granbury, TX 76048","Off Premise",76048,"Justin Page","BF861848","Hood","Granbury","Kevin Whitehorse",NA,NA,NA,NA,-97.7709585,32.4364592,"1"
"334",3773,"Spec's #163 - The Colony","4901 SH 121, The Colony, TX 75056","Off Premise",75056,"Jack Stephenson","BF820022","Denton","The Colony","Edgard Olvera",NA,NA,NA,NA,-96.8839832,33.0691703,"1"
"335",3774,"Spec's #162 - Jacksboro","1111 Jacksboro Hwy., Fort Worth, TX 76107","Off Premise",76107,"House Accounts DFW","RM856085","Tarrant","Fort Worth","Kevin Whitehorse",NA,NA,NA,NA,-97.350221,32.7635534,"1"
"336",3775,"Spec's #161 - Lowry Crossing","4100 E. Hwy 380, Lowry Crossing, TX 75069","Off Premise",75069,"Torie Shelton","BF817879","Collin","Lowry Crossing","Mike Harrison",NA,NA,NA,NA,-96.551085,33.1903522,"1"
"337",3776,"Spec's #160 - Bryant Irvin","4720 Bryant Irvin, Fort Worth, TX 76132","Off Premise",76132,"Jack Stephenson","BF821316","Tarrant","Fort Worth","Kevin Whitehorse",NA,NA,NA,NA,-97.4164183,32.6803228,"1"
"338",3778,"Spec's #157 - Mr. G's","1453 Coit Road, Plano, TX 75075","Off Premise",75075,"Torie Shelton","BF800065","Collin","Plano","Mike Harrison",NA,NA,NA,NA,-96.7675696,33.0184095,"1"
"339",3779,"Spec's #155 - Eastchase Pkwy","1600 Eastchase Pkwy., Suite 265, Fort Worth, TX 76120","Off Premise",76120,"Jack Stephenson","BF812045","Tarrant","Fort Worth","Kevin Whitehorse",NA,NA,NA,NA,-97.1701951,32.7564683,"1"
"340",3780,"Spec's #154 - Hulen","2750 S. Hulen Street, Fort Worth, TX 76109","Off Premise",76109,"Jack Stephenson","BF812958","Tarrant","Fort Worth","Kevin Whitehorse",NA,NA,NA,NA,-97.3866905,32.7115781,"1"
"341",3781,"Spec's #153 - Royal Lane","5959 Royal Lane, Dallas, TX 75230","Off Premise",75230,"Torie Shelton","BF812648","Dallas","Dallas","Joe Castro",NA,NA,NA,NA,-96.8057371,32.8957328,"1"
"342",3782,"Spec's #151 - Plano","5930 West Park Blvd., Plano, TX 75093","Off Premise",75093,"Torie Shelton","BF790988","Collin","Plano","Mike Harrison",NA,NA,NA,NA,-96.8268095,33.027027,"1"
"343",3783,"Spec's #150 - NCX","9500 N. Central Expwy., Suite 200, Dallas, TX 75231","Off Premise",75231,"Torie Shelton","BF790289","Dallas","Dallas","James Hall",NA,NA,NA,NA,-96.7693611,32.8784264,"1"
"344",3784,"Spec's #141 - NCX Plano","3404 N. Central Expwy., Suite 100, Plano, TX 75074","Off Premise",75074,"Torie Shelton","BF860260","Collin","Plano","Mike Harrison",NA,NA,NA,NA,-96.700156,33.0414208,"1"
"345",3785,"Spec's #127 - Dalworthington","3200 W. Pioneer Pkwy, Arlington, TX 76013","Off Premise",76013,"Jack Stephenson","BF841222","Tarrant","Arlington","Kevin Whitehorse",NA,NA,NA,NA,-97.1576046,32.7099944,"1"
"346",3786,"Spec's #116 - Westlake","2431 HWY 377, Westlake, TX 76262","Off Premise",76262,"Jack Stephenson","BF842593","Tarrant","Westlake","James Liston",NA,NA,NA,NA,-97.2365424,32.9869321,"1"
"347",3787,"Spec's #115 - NW HWY","1613 W. Northwest Hwy, Dallas, TX 75220","Off Premise",75220,"Torie Shelton","BF841594","Dallas","Dallas","James Liston",NA,NA,NA,NA,-96.9205522,32.8717241,"1"
"348",3789,"Social House - Addison","5100 Beltline Road, Suite 410, Addison, TX 75254","On Premise",75254,"Ethan Garrison","MB836734","Dallas","Addison","Harrison Boyland",NA,NA,NA,NA,-96.820655,32.951594,"1"
"349",3793,"Sigel's - Routh Street","2800 Routh Street, Suite 180, Dallas, TX 75201","Off Premise",75201,"Brandon Byrd","BF497603","Dallas","Dallas","James Hall",NA,NA,NA,NA,-96.8032437,32.7988701,"1"
"350",3795,"Sigel's - Greenville","5757 Greenville Ave., Dallas, TX 75206","Off Premise",75206,"Brandon Byrd","BF306475","Dallas","Dallas","James Hall",NA,NA,NA,NA,-96.7693579,32.8554346,"1"
"351",3799,"Sahay Market","7777 Warren Pkwy, Suite 300, Frisco, TX 75034","Off Premise",75034,"Mason Lowe","BQ977321","Collin","Frisco","Mike Harrison",NA,NA,NA,NA,-96.8184357,33.106346,"1"
"352",3813,"S&K Beverage","101 W. Spring Creek Pkwy, Suite 741, Plano, TX 75023","Off Premise",75023,"Mason Lowe","BF846779","Collin","Plano","Mike Harrison",NA,NA,NA,NA,-96.6947157,33.0579633,"1"
"353",3821,"Rodeo Goat - Fort Worth","2836 Bledsoe St, Fort Worth, TX 76107","On Premise",76107,"Brandon Pitzer","MB818775","Tarrant","Fort Worth","Kevin Whitehorse",NA,NA,NA,NA,-97.3581971,32.7486559,"1"
"354",3822,"Richardson Beer & Wine","515 W. Campbell Road, Suite 105, Richardson, TX 75080","Off Premise",75080,"Brandon Byrd","BQ795130","Dallas","Richardson","Harrison Boyland",NA,NA,NA,NA,-96.7372313,32.9761522,"1"
"355",3827,"Zanata - Rockwall (Mac & Ted's Lighthouse","202 E. Rusk A, Rockwall, TX 75087","On Premise",75087,"Hudson Boyd","RM685262","Rockwall","Rockwall","Harrison Boyland",NA,NA,NA,NA,-96.4592929,32.9308822,"1"
"356",3829,"World of Beer - Arlington","5005 S. Cooper Street, Suite 183, Arlington, TX 76017","On Premise",76017,"Brandon Pitzer","MB782769","Tarrant","Arlington","Kevin Whitehorse",NA,NA,NA,NA,-97.1332275,32.6636674,"1"
"357",3832,"World Market #218 - Watauga","7616 Denton, Hwy., Suite 516, Watauga, TX 76148","Off Premise",76148,"Brian Schick","BQ551146","Tarrant","Watauga","James Liston",NA,NA,NA,NA,-97.2587011,32.8824698,"1"
"358",3836,"World Market #135 - Fort Worth","4701 West Freeway, Suite 400, Fort Worth, TX 76107","Off Premise",76107,"Justin Page","BQ481937","Tarrant","Fort Worth","Kevin Whitehorse",NA,NA,NA,NA,-97.390575,32.7317047,"1"
"359",3839,"Wired Willy's (Wilcox Land Development db","710 Carroll Street, Fort Worth, TX 76107","On Premise",76107,"Brandon Pitzer","BQ559507","Tarrant","Fort Worth","Kevin Whitehorse",NA,NA,NA,NA,-97.3548803,32.7516414,"1"
"360",3842,"Wild Detectives","314 W. 8th Street, Dallas, TX 75208","On Premise",75208,"Ethan Garrison","N857066","Dallas","Dallas","James Hall",NA,NA,NA,NA,-96.8272389,32.7478791,"1"
"361",3845,"Whip In - Flower Mound","2240 Morris Road, Suite 100, Flower Mound, TX 75028","On Premise",75028,"Brian Schick","B979588","Denton","Flower Mound","Edgard Olvera",NA,NA,NA,NA,-97.0619764,33.0511325,"1"
"362",3846,"WFM #346 - Highland Park","4100 Lomo Alto Drive, Highland Park, TX 75219","Off Premise",75219,"Brandon Byrd","BG516550","Dallas","Highland Park","James Hall",NA,NA,NA,NA,-96.8144176,32.8205283,"1"
"363",3847,"WFM #339 - Arlington","801 E. Lamar Blvd., Arlington, TX 76011","Off Premise",76011,"Justin Page","BQ578890","Tarrant","Arlington","Jack Stephenson",NA,NA,NA,NA,-97.0990566,32.7669048,"1"
"364",3848,"WFM #336 - Plano","2201 Preston Road, Suite C, Plano, TX 75093","Off Premise",75093,"Mason Lowe","BQ284920","Collin","Plano","Mike Harrison",NA,NA,NA,NA,-96.794998,33.0295927,"1"
"365",3849,"WFM #332 - Colleyville","4801 Colleyville, Rd, Colleyville, TX 76034","Off Premise",76034,"Brian Schick","BG873354","Tarrant","Colleyville","James Liston",NA,NA,NA,NA,-97.1554283,32.8790865,"1"
"366",3850,"WFM #328 - Addison","5100 Belt Line Road, Suite 1012, Addison, TX 75254","Off Premise",75254,"Brandon Byrd","BG843831","Dallas","Addison","Harrison Boyland",NA,NA,NA,NA,-96.820655,32.951594,"1"
"367",3851,"WFM #318 - Fairview","105 Stacy Road, Fairview, TX 75069","Off Premise",75069,"Mason Lowe","BQ755182","Collin","Fairview","Mike Harrison",NA,NA,NA,NA,-96.6565457,33.1310936,"1"
"368",3852,"WFM #317 - Park Lane","8190 Park Lane, Suite 351, Dallas, TX 75207","Off Premise",75207,"Brandon Byrd","BG738282","Dallas","Dallas","James Hall",NA,NA,NA,NA,-96.7657217,32.8716416,"1"
"369",3853,"WFM #312 - Preston Road","11700 Preston Road, Suite 714, Dallas, TX 75230","Off Premise",75230,"Brandon Byrd","BQ764700","Dallas","Dallas","James Liston",NA,NA,NA,NA,-96.8028513,32.908256,"1"
"370",3854,"WFM #316 - Abrams","2118 Abrams Road, Dallas, TX 75214","Off Premise",75214,"Brandon Byrd","BG715112","Dallas","Dallas","James Hall",NA,NA,NA,NA,-96.7523266,32.8158207,"1"
"371",3855,"Webb Chapel Beer & Wine","1004 Webb Chapel Road, Carrollton, TX 75006","Off Premise",75006,"Brian Schick","BQ719477","Dallas","Carrollton","Harrison Boyland",NA,NA,NA,NA,-96.8708922,32.9533261,"1"
"372",3864,"Village Burger Bar - Allen","957 Garden Park Drive, Allen, TX 75013","On Premise",75013,"Hudson Boyd","BQ715638","Collin","Allen","Mike Harrison",NA,NA,NA,NA,-96.6850055,33.0886843,"1"
"373",3866,"Vickery Park - Plano","1011 E. 15th Street, Plano, TX 75074","On Premise",75074,"Hudson Boyd","N810006","Collin","Plano","Mike Harrison",NA,NA,NA,NA,-96.7004276,33.0199763,"1"
"374",3872,"Twisted Snifter","111 N Main Street, Weatherford, TX 76086","On Premise",76086,"Brandon Pitzer","BF795838","Parker","Weatherford","James Liston",NA,NA,NA,NA,-97.7976892,32.7600423,"1"
"375",3884,"Total Wine #505 - Plano (NCX)","721 N. Central Expwy., Suite 200, Plano, TX 75075","Off Premise",75075,"Torie Shelton","BF847383","Collin","Plano","Mike Harrison",NA,NA,NA,NA,-96.7096636,33.0102308,"1"
"376",3885,"Total Wine #501 - Northpark","9350 N. Central Expwy., Dallas, TX 75231","Off Premise",75231,"Torie Shelton","BF803063","Dallas","Dallas","James Hall",NA,NA,NA,NA,-96.768382,32.8745044,"1"
"377",3886,"Total Wine #507 - Lewisville","2325 S. Stemmons Frwy, Lewisville, TX 75067","Off Premise",75067,"Jack Stephenson","BF864817","Denton","Lewisville","Edgard Olvera",NA,NA,NA,NA,-96.979309,33.0059687,"1"
"378",3887,"Total Wine #502 - Hulen","5200 S. Hulen Street, Fort Worth, TX 76132","Off Premise",76132,"Jack Stephenson","P818999","Tarrant","Fort Worth","Kevin Whitehorse",NA,NA,NA,NA,-97.4005508,32.673025,"1"
"379",3891,"Tom Thumb 3658 - N Collins","2755 N Collins, Arlington, TX 76006","Off Premise",76006,"Justin Page","BQ578602","Tarrant","Arlington","Kevin Whitehorse",NA,NA,NA,NA,-97.0942118,32.7833992,"1"
"380",3892,"Tom Thumb 3650 - Preston Rd.","14999 Preston Rd, Dallas, TX 75240","Off Premise",75240,"Brandon Byrd","BQ764650","Dallas","Dallas","Harrison Boyland",NA,NA,NA,NA,-96.8051627,32.9525872,"1"
"381",3893,"Tom Thumb 3641 - Custer","3411 Custer Pkwy, Richardson, TX 75080","Off Premise",75080,"Mason Lowe","BQ649070","Collin","Richardson","Mike Harrison",NA,NA,NA,NA,-96.7306655,32.9987714,"1"
"382",3894,"Tom Thumb 3637 - W. Campbell","1380 W. Campbell Rd, Richardson, TX 75080","Off Premise",75080,"Brandon Byrd","BQ647913","Dallas","Richardson","Harrison Boyland",NA,NA,NA,NA,-96.7669645,32.9801095,"1"
"383",3895,"Tom Thumb 3621 - N Macarthur","4010 N Macarthur Blvd, Irving, TX 75038","Off Premise",75038,"Justin Page","BQ712824","Dallas","Irving","James Liston",NA,NA,NA,NA,-96.9572739,32.859944,"1"
"384",3896,"Tom Thumb 3608 - NW Hwy","7700 NW Hwy, Dallas, TX 75225","Off Premise",75225,"Brandon Byrd","BQ454479","Dallas","Dallas","James Hall",NA,NA,NA,NA,-96.772922,32.864202,"1"
"385",3897,"Tom Thumb 3597 - Preston","11920 Preston Rd, Dallas, TX 75230","Off Premise",75230,"Brandon Byrd","BQ765343","Dallas","Dallas","James Liston",NA,NA,NA,NA,-96.8019358,32.9109937,"1"
"386",3898,"Tom Thumb 3582 - Preston Rd.","18212 Preston Rd, Dallas, TX 75252","Off Premise",75252,"Mason Lowe","BQ741217","Collin","Dallas","Harrison Boyland",NA,NA,NA,NA,-96.7936702,32.9998288,"1"
"387",3899,"Tom Thumb 3579 - W McDermott","900 W. McDermott Rd, Allen, TX 75013","Off Premise",75013,"Mason Lowe","BQ562943","Collin","Allen","Mike Harrison",NA,NA,NA,NA,-96.6808766,33.103347,"1"
"388",3901,"Tom Thumb 3575 - Justin","2301 Justin Rd, Flower Mound, TX 75028","Off Premise",75028,"Brian Schick","BQ455447","Denton","Flower Mound","Edgard Olvera",NA,NA,NA,NA,-97.0639301,33.0716423,"1"
"389",3903,"Tom Thumb 3572 - Flower Mound","2600 Flower Mound, Rd, Flower Mound, TX 75028","Off Premise",75028,"Brian Schick","BQ455446","Denton","Flower Mound","Edgard Olvera",NA,NA,NA,NA,-97.0688358,33.0153891,"1"
"390",3904,"Tom Thumb 2990 - Inwood Road","7117 Inwood Road, Dallas, TX 75209","Off Premise",75209,"Brandon Byrd","BQ454477","Dallas","Dallas","James Liston",NA,NA,NA,NA,-96.8226228,32.8444667,"1"
"391",3905,"Tom Thumb 2964 - N Goliad","3070 N Goliad, Rockwall, TX 75087","Off Premise",75087,"Brandon Byrd","BQ727642","Rockwall","Rockwall","Harrison Boyland",NA,NA,NA,NA,-96.4624392,32.964419,"1"
"392",3906,"Tom Thumb 2963 - FM 423","5550 FM 423, Frisco, TX 75034","Off Premise",75034,"Brian Schick","BQ835450","Denton","Frisco","Edgard Olvera",NA,NA,NA,NA,-96.8887036,33.1254586,"1"
"393",3907,"Tom Thumb 2643 - Marsh Lane","14280 Marsh Ln, Addison, TX 75001","Off Premise",75001,"Brandon Byrd","BQ768798","Dallas","Addison","Harrison Boyland",NA,NA,NA,NA,-96.8536945,32.9387591,"1"
"394",3908,"Tom Thumb 2642 - E. Lovers Ln.","5809 E Lovers Lane, Dallas, TX 75206","Off Premise",75206,"Brandon Byrd","BQ454475","Dallas","Dallas","James Hall",NA,NA,NA,NA,-96.7669593,32.8518532,"1"
"395",3909,"Tom Thumb 2609 - Hurst","612 Grapevine Hwy, Hurst, TX 76054","Off Premise",76054,"Justin Page","BQ568624","Tarrant","Hurst","James Liston",NA,NA,NA,NA,-97.1795293,32.8640436,"1"
"396",3911,"Tom Thumb 2590 - N. Josey","4112 N. Josey Ln, Carrollton, TX 75007","Off Premise",75007,"Brian Schick","BQ570798","Denton","Carrollton","Edgard Olvera",NA,NA,NA,NA,-96.8831886,33.0233172,"1"
"397",3912,"Tom Thumb 2581 - Preston","4848 Preston Rd, Frisco, TX 75034","Off Premise",75034,"Mason Lowe","BQ512658","Collin","Frisco","Mike Harrison",NA,NA,NA,NA,-96.8039704,33.1190615,"1"
"398",3913,"Tom Thumb 2580 - W. Southlake","100 W. Southlake, Blvd #2, Southlake, TX 76092","Off Premise",76092,"Brian Schick","BF475580","Tarrant","Southlake","James Liston",NA,NA,NA,NA,-97.1519448,32.9425383,"1"
"399",3914,"Tom Thumb 2574 - S. Hulen","3100 S. Hulen, Fort Worth, TX 76109","Off Premise",76109,"Justin Page","BQ455455","Tarrant","Fort Worth","Kevin Whitehorse",NA,NA,NA,NA,-97.3894079,32.7059639,"1"
"400",3915,"Tom Thumb 2570 - W Parker","5968 West Parker Rd, Plano, TX 75093","Off Premise",75093,"Mason Lowe","BQ768672","Collin","Plano","Mike Harrison",NA,NA,NA,NA,-96.8285458,33.0429805,"1"
"401",3916,"Tom Thumb 1972 - Hwy North","980 Hwy North 287, Mansfield, TX 76063","Off Premise",76063,"Justin Page","BQ616056","Tarrant","Mansfield","Kevin Whitehorse",NA,NA,NA,NA,-97.1288208,32.582452,"1"
"402",3917,"Tom Thumb 1925 - Lakeview","8805 Lakeview Parkway, Rowlett, TX 75089","Off Premise",75089,"Brandon Byrd","BQ563203","Rockwall","Rowlett","Harrison Boyland",NA,NA,NA,NA,-96.5163426,32.9204619,"1"
"403",3918,"Tom Thumb 1854 - Cross Timbers","4301 Cross Timbers Road, Flower Mound, TX 75028","Off Premise",75028,"Brian Schick","BQ814298","Denton","Flower Mound","Edgard Olvera",NA,NA,NA,NA,-97.097516,33.0402734,"1"
"404",3919,"Tom Thumb 1789 - Trophy Lake","101 Trophy Lake Drive, Trophy Club, TX 76262","Off Premise",76262,"Brian Schick","BQ559507","Denton","Trophy Club","James Liston",NA,NA,NA,NA,-97.2052124,33.0001486,"1"
"405",3921,"Tom Thumb 1783 - Arapaho Garland","2645 Arapaho, Garland, TX 75044","Off Premise",75044,"Brandon Byrd","BQ604772","Dallas","Garland","Harrison Boyland",NA,NA,NA,NA,-96.6669025,32.9608694,"1"
"406",3922,"Tom Thumb 1781 - Denton Tap","106 N. Denton Tap Road, Coppell, TX 75019","Off Premise",75019,"Brian Schick","BQ647914","Dallas","Coppell","Edgard Olvera",NA,NA,NA,NA,-96.991895,32.9706941,"1"
"407",3924,"Tom Thumb 2534 - E. Mockingbird","6333 E. Mockingbird Lane, Dallas, TX 75214","Off Premise",75214,"Brandon Byrd","BQ454473","Dallas","Dallas","James Hall",NA,NA,NA,NA,-96.754334,32.8376449,"1"
"408",3926,"Tolbert's","423 S. Main Street, Grapevine, TX 76051","On Premise",76051,"Nathan Zaremba","BG836376","Tarrant","Grapevine","James Liston",NA,NA,NA,NA,-97.078096,32.936896,"1"
"409",3931,"The Rustic","3656 Howell, Dallas, TX 75204","On Premise",75204,"Ethan Garrison","MB909089","Dallas","Dallas","James Hall",NA,NA,NA,NA,-96.7942022,32.8049131,"1"
"410",3934,"The Pub - McKinney","204 W. Virginia Street, McKinney, TX 75069","On Premise",75069,"Hudson Boyd","RM742716","Collin","McKinney","Mike Harrison",NA,NA,NA,NA,-96.6168221,33.1981796,"1"
"411",3936,"The Porch","2912 N. Henderson Ave., Dallas, TX 75206","On Premise",75206,"Dominique Van Ausdall","MB652229","Dallas","Dallas","James Hall",NA,NA,NA,NA,-96.7846408,32.8206321,"1"
"412",3943,"The Local Oak","409 N. Zang Blvd., Dallas, TX 75208","On Premise",75208,"Ethan Garrison","RM837967","Dallas","Dallas","James Hall",NA,NA,NA,NA,-96.825072,32.7485787,"1"
"413",3944,"The Local","2800 Bledsoe Street, Fort Worth, TX 76107","On Premise",76107,"Brandon Pitzer","MB851274","Tarrant","Fort Worth","Kevin Whitehorse",NA,NA,NA,NA,-97.3570931,32.7484548,"1"
"414",3954,"Liquor Galore","2124 Tin Top Road. Suite 100, Weatherford, TX 76086","Off Premise",76086,"Brandon Pitzer","BF714156","Parker","Weatherford","James Liston",NA,NA,NA,NA,-97.7985176,32.7288474,"1"
"415",3957,"Velvet Taco - Dallas","3012 N. Henderson Avenue, Dallas, TX 75206","On Premise",75206,"Dominique Van Ausdall","MB780247","Dallas","Dallas","James Hall",NA,NA,NA,NA,-96.7853521,32.8217341,"1"
"416",3958,"The Boiled Owl","909 W. Magnolia, Fort Worth, TX 76104","On Premise",76104,"Brandon Pitzer","MB781942","Tarrant","Fort Worth","Kevin Whitehorse",NA,NA,NA,NA,-97.333749,32.7304296,"1"
"417",3959,"Total Wine #506 - Preston Road","8700 Preston Road, Suite 113, Plano, TX 75024","Off Premise",75024,"Torie Shelton","BF847379","Collin","Plano","Mike Harrison",NA,NA,NA,NA,-96.8014422,33.0960641,"1"
"418",3967,"Goody Goody - Lake Dallas","104 N. Stemmons Fwy., Lake Dallas, TX 75065","Off Premise",75065,"Brian Schick","BF530945","Denton","Lake Dallas","Edgard Olvera",NA,NA,NA,NA,-97.0339241,33.1232599,"1"
"419",3972,"Broadway Tobacco","5335 Broadway, Garland, TX 75043","Off Premise",75043,"Brandon Byrd","BQ874471","Dallas","Garland","Harrison Boyland",NA,NA,NA,NA,-96.5984864,32.8500366,"1"
"420",3976,"Sigel's - Oasis Liquor","538 Centennial, Richardson, TX 75081","Off Premise",75081,"Brandon Byrd","BF306485","Dallas","Richardson","Harrison Boyland",NA,NA,NA,NA,-96.7200912,32.9377339,"1"
"421",3978,"Off the Record Bar","2720 Elm Street, Dallas, TX 75226","On Premise",75226,"Dominique Van Ausdall","MB766173","Dallas","Dallas","James Hall",NA,NA,NA,NA,-96.7838877,32.7844333,"1"
"422",3984,"Total Wine #508 - Arlington South","981 I-20 W, Arlington, TX 76017","Off Premise",76017,"Jack Stephenson","BF881752","Tarrant","Arlington","Kevin Whitehorse",NA,NA,NA,NA,-97.1205016,32.6791836,"1"
"423",3988,"Goody Goody - Camp Bowie","6393 Camp Bowie Blvd, Fort Worth, TX 76116","Off Premise",76116,"Justin Page","BF685272","Tarrant","Fort Worth","Kevin Whitehorse",NA,NA,NA,NA,-97.4215675,32.7246089,"1"
"424",3989,"Albertsons #4270 - Glade Rd.","4000 Glade Road, Colleyville, TX 76034","Off Premise",76034,"Brian Schick","BQ275633","Tarrant","Colleyville","James Liston",NA,NA,NA,NA,-97.1014533,32.8825152,"1"
"425",3999,"Fossil Creek Liquor - Saginaw","1205 Saginaw Blvd, Saginaw, TX 76179","Off Premise",76179,"Brian Schick","BF525166","Tarrant","Saginaw","James Liston",NA,NA,NA,NA,-97.3826208,32.879999,"1"
"426",4001,"Metzler's - University","1115 E. University Drive, Denton, TX 76201","On Premise",76201,"Nathan Zaremba","BG706046","Denton","Denton","Edgard Olvera",NA,NA,NA,NA,-97.1434489,33.2294811,"1"
"427",4003,"Spec's #128 - Addison","15055 Inwood Road, Addison, TX 75001","Off Premise",75001,"Torie Shelton","BF841224","Dallas","Addison","Harrison Boyland",NA,NA,NA,NA,-96.8312324,32.9536661,"1"
"428",4006,"Fossil Creek Liquor - Colleyville","8070 Precint Line Road, Colleyville, TX 76034","Off Premise",76034,"Brian Schick","BF799844","Tarrant","Colleyville","James Liston",NA,NA,NA,NA,-97.1852981,32.8979215,"1"
"429",4007,"Stonedeck Pizza Pub","2613 Elm Street, Dallas, TX 75226","On Premise",75226,"Dominique Van Ausdall","MB872437","Dallas","Dallas","James Hall",NA,NA,NA,NA,-96.7860083,32.7843323,"1"
"430",4017,"Drunken Donkey - Lewisville","310 W. Round Grove Rd., Suite 109, Lewisville, TX 75067","On Premise",75067,"Nathan Zaremba","RM862594","Denton","Lewisville","Edgard Olvera",NA,NA,NA,NA,-96.9970416,33.0030814,"1"
"431",4024,"Fossil Creek Liquor - Lake Dallas","304 Swisher Rd., Lake Dallas, TX 75065","Off Premise",75065,"Brian Schick","BF755640","Denton","Lake Dallas","Edgard Olvera",NA,NA,NA,NA,-97.0377043,33.1305655,"1"
"432",4032,"Fossil Creek Liquor - Dalworthington","4130 S. Bowen Road, Dalworthington Gardens, TX 76016","Off Premise",76016,"Justin Page","BF755631","Tarrant","Dalworthington Gardens","Kevin Whitehorse",NA,NA,NA,NA,-97.1513352,32.6785269,"1"
"433",4039,"Republic Street Bar","201 E. Hattie Street, Fort Worth, TX 76104","On Premise",76104,"Brandon Pitzer","MB859767","Tarrant","Fort Worth","Kevin Whitehorse",NA,NA,NA,NA,-97.3248432,32.7381755,"1"
"434",4044,"Shellmans","2300 Highland Village Road, #100, Highland Village, TX 75077","Off Premise",75077,"Brian Schick","BF628819","Denton","Highland Village","Edgard Olvera",NA,NA,NA,NA,-97.0587573,33.0724451,"1"
"435",4045,"Matador Meat & Wine","8308 Preston Rd. Suite 102, Plano, TX 75024","Off Premise",75024,"Mason Lowe","BQ822093","Collin","Plano","Mike Harrison",NA,NA,NA,NA,-96.803493,33.0915339,"1"
"436",4046,"Mirage Fine Spirits","4405 Colleyville Blvd., Suite 110, Colleyville, TX 76034","Off Premise",76034,"Brian Schick","BF858364","Tarrant","Colleyville","James Liston",NA,NA,NA,NA,-97.1623186,32.874614,"1"
"437",4047,"Three Sheets - Rockwall","2075 Summer Lee, Rockwall, TX 75032","On Premise",75032,"Hudson Boyd","RM993989","Rockwall","Rockwall","Harrison Boyland",NA,NA,NA,NA,-96.4812158,32.8907476,"1"
"438",4050,"So-Cal Taco","2140 Hall Johnson Rd., Suite #118, Grapevine, TX 76051","On Premise",76051,"Nathan Zaremba","MB847560","Tarrant","Grapevine","James Liston",NA,NA,NA,NA,-97.1012431,32.8939633,"1"
"439",4053,"BFF Bakery & Bistro - Lamar","2150 E. Lamar Blvd., #100, Arlington, TX 76006","On Premise",76006,"Brandon Pitzer","RM885428","Tarrant","Arlington","Kevin Whitehorse",NA,NA,NA,NA,-97.0742569,32.7616807,"1"
"440",4054,"Kent & Co Wines","1101 W. Magnolia Ave., Fort Worth, TX 76104","On Premise",76104,"Brandon Pitzer","BG861659","Tarrant","Fort Worth","Kevin Whitehorse",NA,NA,NA,NA,-97.3370141,32.7304224,"1"
"441",4055,"Spec's #158 - Two Bucks","4702 South Fwy, Fort Worth, TX 76115","Off Premise",76115,"Jack Stephenson","BF812046","Tarrant","Fort Worth","Kevin Whitehorse",NA,NA,NA,NA,-97.3215319,32.6773098,"1"
"442",4058,"BJ's Restaurant - Hulen","4720 South Hulen St., Fort Worth, TX 76132","On Premise",76132,"Brandon Pitzer","MB785151","Tarrant","Fort Worth","Kevin Whitehorse",NA,NA,NA,NA,-97.3971622,32.677962,"1"
"443",4059,"3 Stax Smokehouse","4226 Preston Rd., Frisco, TX 75034","On Premise",75034,"Hudson Boyd","RM817480","Collin","Frisco","Mike Harrison",NA,NA,NA,NA,-96.8041627,33.1148551,"1"
"444",4062,"Albertsons #4267 - Rufe Snow Dr","6249 Rufe Snow Drive, Watauga, TX 76148","Off Premise",76148,"Brian Schick","BQ758837","Tarrant","Watauga","James Liston",NA,NA,NA,NA,-97.2400543,32.858781,"1"
"445",4066,"Dallas Craft Company - Colony","4897 HWY 121, Suite 340, The Colony, TX 75056","On Premise",75056,"Hudson Boyd","MB875043","Denton","The Colony","Edgard Olvera",NA,NA,NA,NA,-96.8853554,33.0689747,"1"
"446",4067,"Dr. Jeckyll's Beer Lab","2420 W. Park Row Dr., Pantego, TX 76013","On Premise",76013,"Brandon Pitzer","BG885942","Tarrant","Pantego","Kevin Whitehorse",NA,NA,NA,NA,-97.1475381,32.7209154,"1"
"447",4069,"Albertsons #4163 - S. Cooper St.","5950 S. Cooper St., Arlington, TX 76017","Off Premise",76017,"Justin Page","BQ611362","Tarrant","Arlington","Kevin Whitehorse",NA,NA,NA,NA,-97.1371155,32.6492141,"1"
"448",4070,"Albertsons #4032 - Alton Rd.","3563 Alton Road, Fort Worth, TX 76109","Off Premise",76109,"Justin Page","BQ737543","Tarrant","Fort Worth","Kevin Whitehorse",NA,NA,NA,NA,-97.3694819,32.6978435,"1"
"449",4071,"Albertsons #4151 - Western Center","4400 Western Center Blvd., Fort Worth, TX 76137","Off Premise",76137,"Brian Schick","BQ711081","Tarrant","Fort Worth","James Liston",NA,NA,NA,NA,-97.2915446,32.8592749,"1"
"450",4072,"Albertsons #4272 - Loop 820 E","850 Loop 820 East, Fort Worth, TX 76112","Off Premise",76112,"Justin Page","BQ242205","Tarrant","Fort Worth","Kevin Whitehorse",NA,NA,NA,NA,-97.2151321,32.7674132,"1"
"451",4074,"Mellow Mushroom - Flower Mound","2450 Cross Timbers Rd., Suite 100, Flower Mound, TX 75028","On Premise",75028,"Nathan Zaremba","RM876501","Denton","Flower Mound","Edgard Olvera",NA,NA,NA,NA,-97.0666926,33.0358584,"1"
"452",4076,"Albertsons #4142 - SW Plaza","301 SW Plaza Shopping Center, Arlington, TX 76016","Off Premise",76016,"Justin Page","BQ576756","Tarrant","Arlington","Kevin Whitehorse",NA,NA,NA,NA,-97.1989482,32.6771614,"1"
"453",4081,"Eureka!","3700 McKinney Ave., Suite 126, Dallas, TX 75204","On Premise",75204,"Ethan Garrison","MB890868","Dallas","Dallas","James Hall",NA,NA,NA,NA,-96.7958612,32.8082229,"1"
"454",4086,"Taps & Caps - Lewisville","4740 SH 121, #500, Lewisville, TX 75056","On Premise",75056,"Dominique Van Ausdall","BG881078","Denton","Lewisville","Edgard Olvera",NA,NA,NA,NA,-81.1046112,34.8241356,"1"
"455",4090,"State & Allen","2400 Allen Street, Dallas, TX 75204","On Premise",75204,"Ethan Garrison","MB565108","Dallas","Dallas","James Hall",NA,NA,NA,NA,-96.7979877,32.7975352,"1"
"456",4093,"Albertsons #4279 - NE Alsbury","833 NE Alsbury Blvd., Burleson, TX 76028","Off Premise",76028,"Justin Page","BQ239355","Tarrant","Burleson","Kevin Whitehorse",NA,NA,NA,NA,-97.3222216,32.565043,"1"
"457",4095,"Seven Mart Food Store","501 W. Davis Street, Dallas, TX 75208","Off Premise",75208,"Brandon Byrd","BQ876951","Dallas","Dallas","James Hall",NA,NA,NA,NA,-96.8306405,32.7496361,"1"
"458",4096,"Albertsons #4105 - Frankford Rd.","4625 Frankford Rd., Dallas, TX 75287","Off Premise",75287,"Mason Lowe","BQ767661","Collin","Dallas","Harrison Boyland",NA,NA,NA,NA,-96.827298,32.9993546,"1"
"459",4097,"Antebellum Ale House","321 E. Oak Street, Weatherford, TX 76086","On Premise",76086,"Brandon Pitzer","N892393","Parker","Weatherford","James Liston",NA,NA,NA,NA,-97.7926355,32.7575516,"1"
"460",4099,"Goody Goody - The Colony #11","5285 Highway 121, The Colony, TX 75056","Off Premise",75056,"Brian Schick","BF478378","Denton","The Colony","Edgard Olvera",NA,NA,NA,NA,-96.8789144,33.0714274,"1"
"461",4104,"No Frills Grill - Burleson","12846 S. Freeway, Burleson, TX 76102","On Premise",76102,"Justin Page","MB890620","Tarrant","Burleson","Kevin Whitehorse",NA,NA,NA,NA,-97.3218429,32.5704859,"1"
"462",4107,"Dallas Grilled Cheese","310 West 7th Street, Dallas, TX 75208","On Premise",75208,"Ethan Garrison","RM891491","Dallas","Dallas","James Hall",NA,NA,NA,NA,-96.8273496,32.7485727,"1"
"463",4110,"Spec's #156 - Marsh Lane","9972 Marsh Lane, Dallas, TX 75220","Off Premise",75220,"Torie Shelton","BF882879","Dallas","Dallas","James Liston",NA,NA,NA,NA,-96.8557469,32.8795292,"1"
"464",4113,"World Of Beer - Ft. Worth","3252 W. 7th Street, Fort Worth, TX 76107","On Premise",76107,"Brandon Pitzer","MB892170","Tarrant","Fort Worth","Kevin Whitehorse",NA,NA,NA,NA,-97.3642853,32.7515845,"1"
"465",4114,"Sigel's - Riverfront","506 S Riverfront Blvd., Dallas, TX 75207","Off Premise",75207,"Brandon Byrd","BF306480","Dallas","Dallas","James Hall",NA,NA,NA,NA,-96.8106146,32.7699085,"1"
"466",4115,"Plano Liquor","601 W Parker Rd #107, Plano, TX 75023","Off Premise",75023,"Mason Lowe","BF849288","Collin","Plano","Mike Harrison",NA,NA,NA,NA,-96.7085556,33.0411884,"1"
"467",4116,"On Rotation Brewhouse","7328 Gaston Avenue Suite 110, Dallas, TX 75214","On Premise",75214,"Dominique Van Ausdall","BG891647","Dallas","Dallas","James Hall",NA,NA,NA,NA,-96.7314199,32.8109798,"1"
"468",4117,"Albertsons #4198 - N Beach Street","10800 N Beach Street, Fort Worth, TX 76248","Off Premise",76248,"Brian Schick","BQ710930","Tarrant","Fort Worth","James Liston",NA,NA,NA,NA,-97.2873944,32.9294657,"1"
"469",4119,"Albertsons #4262 - Airport Fwy","1300 Airport Freeway, Bedford, TX 76022","Off Premise",76022,"Justin Page","BQ616332","Tarrant","Bedford","James Liston",NA,NA,NA,NA,-97.150388,32.8369846,"1"
"470",4123,"Public School 214","3700 McKinney Avenue, Dallas, TX 75204","On Premise",75204,"Ethan Garrison","MB894786","Dallas","Dallas","James Hall",NA,NA,NA,NA,-96.7958612,32.8082229,"1"
"471",4133,"Tom Thumb 1785 - FM 3040","1075 FM 3040 West, Lewisville, TX 75067","Off Premise",75067,"Brian Schick","BQ578686","Denton","Lewisville","Edgard Olvera",NA,NA,NA,NA,-97.0172501,33.006627,"1"
"472",4134,"Social House - Ft. Worth","840 Currie Street, Fort Worth, TX 76107","On Premise",76107,"Brandon Pitzer","MB889557","Tarrant","Fort Worth","Kevin Whitehorse",NA,NA,NA,NA,-97.3585936,32.750365,"1"
"473",4136,"Tom Thumb 3645 - E. 14th St.","2200 E. 14th Street, Plano, TX 75074","Off Premise",75074,"Mason Lowe","BQ454314","Collin","Plano","Mike Harrison",NA,NA,NA,NA,-96.6836684,33.0169895,"1"
"474",4139,"Tom Thumb 2686 - W. Randol Mill","1701 W. Randol Mill Rd., Arlington, TX 76012","Off Premise",76012,"Justin Page","BQ579625","Tarrant","Arlington","Kevin Whitehorse",NA,NA,NA,NA,-97.13368,32.7508055,"1"
"475",4140,"Tom Thumb 2578 - Firewheel","2535 Firewheel Parkway, Garland, TX 75040","Off Premise",75040,"Brandon Byrd","BQ604506","Dallas","Garland","Harrison Boyland",NA,NA,NA,NA,-96.6055375,32.9373984,"1"
"476",4145,"Hopdoddy - McKinney Ave","3227 McKinney Ave, Suite C, Dallas, TX 75204","On Premise",75204,"Ethan Garrison","MB868963","Dallas","Dallas","James Hall",NA,NA,NA,NA,-96.8001448,32.8038886,"1"
"477",4148,"Albertsons #4133 - FM 1382","427 FM 1382 East, Cedar Hill, TX 75104","Off Premise",75104,"Brandon Byrd","BQ829158","Dallas","Cedar Hill","Kevin Whitehorse",NA,NA,NA,NA,-96.9377467,32.5930458,"1"
"478",4150,"Albertsons #4278 - S Carrier Pkwy","4126 S. Carrier Parkway, Grand Prairie, TX 75052","Off Premise",75052,"Justin Page","BQ568589","Dallas","Grand Prairie","Kevin Whitehorse",NA,NA,NA,NA,-97.0080879,32.6723812,"1"
"479",4158,"Break Time","4100 E. Park Blvd., Plano, TX 75074","Off Premise",75074,"Mason Lowe","BF871161","Collin","Plano","Harrison Boyland",NA,NA,NA,NA,-96.6484675,33.0315791,"1"
"480",4162,"Albertsons #4150 - Lake Worth","6308 Lake Worth Blvd., Lake Worth, TX 76135","Off Premise",76135,"Justin Page","BQ274202","Tarrant","Lake Worth","James Liston",NA,NA,NA,NA,-97.4223727,32.8120085,"1"
"481",4163,"Albertsons #4223 - Clilfford St.","9300 Clifford Street, Fort Worth, TX 76108","Off Premise",76108,"Justin Page","BQ518674","Tarrant","Fort Worth","Kevin Whitehorse",NA,NA,NA,NA,-97.4792617,32.766936,"1"
"482",4164,"Albertsons #4286 - W Freeway","6700 W. Freeway, Fort Worth, TX 76116","Off Premise",76116,"Justin Page","BQ281159","Tarrant","Fort Worth","James Liston",NA,NA,NA,NA,-97.4330049,32.7369143,"1"
"483",4165,"Albertsons #4124 - Oakmont","7400 Oakmont Blvd., Fort Worth, TX 76132","Off Premise",76132,"Justin Page","BQ475441","Tarrant","Fort Worth","Kevin Whitehorse",NA,NA,NA,NA,-97.4197156,32.6630234,"1"
"484",4177,"Albertsons #4102 - N. Saginaw","1201 N. Saginaw Blvd., Saginaw, TX 76179","Off Premise",76179,"Brian Schick","BQ521157","Tarrant","Saginaw","James Liston",NA,NA,NA,NA,-97.3821104,32.8798886,"1"
"485",4183,"College Street Restaurant and Pub","210 N. College St., Waxahachie, TX 75165","On Premise",75165,"House Accounts DFW","RM722628","Ellis","Waxahachie","Charles_3",NA,NA,NA,NA,-96.8465638,32.3864879,"1"
"486",4189,"Braindead Brewing","2625 Main Street, Dallas, TX 75226","On Premise",75226,"Dominique Van Ausdall","BG898097","Dallas","Dallas","James Hall",NA,NA,NA,NA,-96.7854149,32.7838021,"1"
"487",4191,"Old Texas Brewing Co.","112 W. Ellison St., Burleson, TX 76028","On Premise",76028,"Justin Page","RM839390","Johnson","Burleson","Kevin Whitehorse",NA,NA,NA,NA,-97.3215901,32.5422617,"1"
"488",4192,"Albertsons #4242 - Hwy 287","6220 HWY 287, Arlington, TX 76017","Off Premise",76017,"Justin Page","BQ576525","Tarrant","Arlington","Kevin Whitehorse",NA,NA,NA,NA,-97.1861586,32.6441124,"1"
"489",4201,"Fossil Creek Liquor - N Plano","2240 Hwy 121, Plano, TX 75025","Off Premise",75025,"Mason Lowe","P867496","Collin","Plano","Mike Harrison",NA,NA,NA,NA,-96.7337357,33.1236705,"1"
"490",4202,"LA Burger - Richardson","2000 N. Plano Road, Richardson, TX 75082","On Premise",75082,"Ethan Garrison","BG899570","Dallas","Richardson","Harrison Boyland",NA,NA,NA,NA,-96.6991113,32.9761,"1"
"491",4207,"Buffalo Bros Pizza Wings & Subs","3015 S. University Dr., Fort Worth, TX 76109","On Premise",76109,"Brandon Pitzer","MB722269","Tarrant","Fort Worth","Kevin Whitehorse",NA,NA,NA,NA,-97.3601424,32.707181,"1"
"492",4218,"What's on Tap - Highland Village","2570 Justin Rd., Suite 170, Highland Village, TX 75077","On Premise",75077,"Nathan Zaremba","BG887952","Denton","Highland Village","Edgard Olvera",NA,NA,NA,NA,-97.0693441,33.0743124,"1"
"493",4219,"JJ's Fast Stop #294","5401 Watuga Rd., Watauga, TX 76148","Off Premise",76148,"Brandon Pitzer","BQ862464","Tarrant","Watauga","James Liston",NA,NA,NA,NA,-97.2670371,32.8609566,"1"
"494",4220,"Albertsons #4269 - N Josey Ln","2150 N. Josey Lane, Carrollton, TX 75006","Off Premise",75006,"Brian Schick","BQ569739","Dallas","Carrollton","Edgard Olvera",NA,NA,NA,NA,-96.88849,32.9746461,"1"
